{"type":"FeatureCollection", "features":[{"geometry": {"type": "Point", "coordinates": [16.7803206, 49.01413789999999]}, "type": "Feature", "id": 253, "properties": {"name": "1. chodsk\u00fd pivov\u00e1rek na Morav\u011b", "address": {"email": "1.chodskypivovarek@seznam.cz"}}}, {"geometry": {"type": "Point", "coordinates": [17.3639349, 49.2852118]}, "type": "Feature", "id": 851, "properties": {"url": "http://www.selsky-pivovarek.cz", "name": "1.selsk\u00fd pivov\u00e1rek v Krom\u011b\u0159\u00ed\u017ei", "address": {"phone": "776 465 304, 607 640 188"}}}, {"geometry": {"type": "Point", "coordinates": [14.0885442, 50.2299674]}, "type": "Feature", "id": 245, "properties": {"url": "http://www.pivovarantos.cz", "name": "Anto\u0161ova pivovarsk\u00e1 kr\u010dma s pivovarem", "address": {"email": "info@pivovarantos.cz"}}}, {"geometry": {"type": "Point", "coordinates": [18.2186554, 49.4297341]}, "type": "Feature", "id": 845, "properties": {"url": "http://www.balita.cz", "name": "Balitovy vala\u0161sk\u00e9 pivovary", "address": {"phone": "734 752 656", "email": "info@balita.cz"}}}, {"geometry": {"type": "Point", "coordinates": [18.394474, 49.5320635]}, "type": "Feature", "id": 196, "properties": {"url": "http://www.beskydskypivovarek.cz", "name": "Beskydsk\u00fd pivov\u00e1rek Ostravice", "address": {"email": "info@beskydskypivovarek.cz"}}}, {"geometry": {"type": "Point", "coordinates": [16.008031, 49.0392371]}, "type": "Feature", "id": 839, "properties": {"name": "Biskupick\u00fd pivovar Gajdo\u0161", "address": {"phone": "724579917"}}}, {"geometry": {"type": "Point", "coordinates": [14.3564366, 50.083659]}, "type": "Feature", "id": 207, "properties": {"name": "B\u0159evnovsk\u00fd kl\u00e1\u0161tern\u00ed pivovar sv. Vojt\u011bcha", "address": {"email": "info@brevnovskypivovar.cz"}}}, {"geometry": {"type": "Point", "coordinates": [14.4743196, 48.9634544]}, "type": "Feature", "id": 108, "properties": {"url": "http://www.budweiser-burgerbrau.cz", "name": "Bud\u011bjovick\u00fd m\u011b\u0161\u0165ansk\u00fd pivovar", "address": {"email": "info@budweiser1795.com"}}}, {"geometry": {"type": "Point", "coordinates": [14.8649618, 49.9979416]}, "type": "Feature", "id": 150, "properties": {"url": "http://www.pivovarkostelec.cz", "name": "\u010cernokosteleck\u00fd z\u00e1jezdn\u00ed pivov\u00e1r", "address": {}}}, {"geometry": {"type": "Point", "coordinates": [16.6000084, 49.2096643]}, "type": "Feature", "id": 96, "properties": {"url": "http://www.pivovarmagistr.cz", "name": "Dom\u00e1c\u00ed pivovar a restaurace Magistr", "address": {"email": "pivovarmagistr@email.cz"}}}, {"geometry": {"type": "Point", "coordinates": [12.8658593, 50.2878586]}, "type": "Feature", "id": 272, "properties": {"url": "http://www.pivohastrman.cz", "name": "Dom\u00e1c\u00ed pivovar Velk\u00fd Rybn\u00edk", "address": {"email": "pivovar@pivohastrman.cz"}}}, {"geometry": {"type": "Point", "coordinates": [14.3644653, 48.8273547]}, "type": "Feature", "id": 862, "properties": {"url": "http://www.pivovarglokner.cz", "name": "Hostinsk\u00fd pivovar Glokner", "address": {"phone": "774 499 812, 380 727 950", "email": "objednavky@glokner.cz"}}}, {"geometry": {"type": "Point", "coordinates": [18.6377441, 49.5278767]}, "type": "Feature", "id": 130, "properties": {"url": "http://www.lomnan.cz", "name": "Hotelov\u00fd pivovar Pod Ky\u010dmolem", "address": {"email": "info@podkycmolem.cz"}}}, {"geometry": {"type": "Point", "coordinates": [14.5197557, 50.0314716]}, "type": "Feature", "id": 209, "properties": {"url": "http://www.jihomestskypivovar.cz", "name": "Jihom\u011bstsk\u00fd pivovar Praha", "address": {"email": "info@jihomestskypivovar.cz"}}}, {"geometry": {"type": "Point", "coordinates": [18.5624925, 49.8434752]}, "type": "Feature", "id": 849, "properties": {"url": "http://www.restauraceovecka.cz", "name": "Karvinsk\u00fd pivovar", "address": {"phone": "723933108", "email": "ovecka@restauraceovecka.cz"}}}, {"geometry": {"type": "Point", "coordinates": [14.3884076, 50.0867356]}, "type": "Feature", "id": 217, "properties": {"url": "http://www.klasterni-pivovar.cz", "name": "Kl\u00e1\u0161tern\u00ed pivovar Strahov", "address": {"email": "info@klasterni-pivovar.cz"}}}, {"geometry": {"type": "Point", "coordinates": [17.0884502, 49.4720459]}, "type": "Feature", "id": 230, "properties": {"url": "http://www.kolibautrikralu.cz", "name": "Koliba a pivovar U T\u0159\u00ed kr\u00e1l\u016f", "address": {}}}, {"geometry": {"type": "Point", "coordinates": [14.5076701, 50.9139562]}, "type": "Feature", "id": 850, "properties": {"url": "http://www.krinickypivovar.cz", "name": "K\u0159inick\u00fd pivovar Kr\u00e1sn\u00e1 L\u00edpa", "address": {"phone": "773 289 605"}}}, {"geometry": {"type": "Point", "coordinates": [14.323962, 50.0924815]}, "type": "Feature", "id": 859, "properties": {"url": "http://www.libockypivovar.cz", "name": "Libock\u00fd pivovar Praha", "address": {"phone": "724 518 761", "email": "patek@nadsarkou.cz"}}}, {"geometry": {"type": "Point", "coordinates": [16.6798126, 49.2107723]}, "type": "Feature", "id": 95, "properties": {"url": "http://www.lisenskypivovar.cz", "name": "L\u00ed\u0161e\u0148sk\u00fd pivovar Brno", "address": {"email": "lisenskypivovar@seznam.cz"}}}, {"geometry": {"type": "Point", "coordinates": [14.1532374, 50.5365923]}, "type": "Feature", "id": 168, "properties": {"url": "http://www.kolibahotel.cz", "name": "Litom\u011b\u0159ick\u00fd pivov\u00e1rek Koliba", "address": {"email": "koliba@post.cz"}}}, {"geometry": {"type": "Point", "coordinates": [16.0100847, 49.35473589999999]}, "type": "Feature", "id": 270, "properties": {"url": "http://www.jelinkovavila.cz", "name": "Malostr\u00e1nsk\u00fd pivovar Velk\u00e9 Mezi\u0159\u00ed\u010d\u00ed", "address": {"email": "hotel@jelinkovavila.cz"}}}, {"geometry": {"type": "Point", "coordinates": [13.8918759, 48.9113722]}, "type": "Feature", "id": 865, "properties": {"url": "http://www.hotelbobik.eu", "name": "M\u011bstsk\u00fd pivovar Gabretus Volary", "address": {"phone": "398 990 909", "email": "recepce@hotelbobik.eu"}}}, {"geometry": {"type": "Point", "coordinates": [16.278668, 50.1715995]}, "type": "Feature", "id": 241, "properties": {"url": "http://www.pivovarrychnov.cz", "name": "M\u011bstsk\u00fd podorlick\u00fd pivovar v Rychnov\u011b nad Kn\u011b\u017enou", "address": {"email": "info@sodo.cz"}}}, {"geometry": {"type": "Point", "coordinates": [13.5851056, 49.7380806]}, "type": "Feature", "id": 239, "properties": {"url": "http://www.ustocesu.cz", "name": "Minipivovar a pivnice U Sto\u010des\u016f", "address": {"email": "pivo@ustocesu.cz"}}}, {"geometry": {"type": "Point", "coordinates": [17.6430398, 49.028073]}, "type": "Feature", "id": 261, "properties": {"address": {}, "name": "Minipivovar Balk\u00e1n Uhersk\u00fd Brod", "description": "Closed 2013"}}, {"geometry": {"type": "Point", "coordinates": [14.4724312, 48.9747771]}, "type": "Feature", "id": 841, "properties": {"url": "http://www.beeranek.cz", "name": "Minipivovar Beer\u00e1nek", "address": {"phone": "386 360 186", "email": "info@singerpub.cz"}}}, {"geometry": {"type": "Point", "coordinates": [14.507234, 50.1173703]}, "type": "Feature", "id": 215, "properties": {"url": "http://www.skolicka.cz", "name": "Minipivovar Beznoska Praha", "address": {"email": "skolicka@centrum.cz"}}}, {"geometry": {"type": "Point", "coordinates": [17.2887037, 48.973141]}, "type": "Feature", "id": 104, "properties": {"name": "Minipivovar Bzenec", "address": {"email": "sladek@knezihora.com"}}}, {"geometry": {"type": "Point", "coordinates": [15.0061389, 49.1444823]}, "type": "Feature", "id": 847, "properties": {"name": "Minipivovar \u010cern\u00fd Orel Jind\u0159ich\u016fv Hradec", "address": {"phone": "384 361 252, 777 799 224", "email": "info@grandhotelcernyorel.cz"}}}, {"geometry": {"type": "Point", "coordinates": [17.3923407, 49.29832090000001]}, "type": "Feature", "id": 155, "properties": {"url": "http://www.cerny-orel.eu", "name": "Minipivovar \u010cern\u00fd orel Krom\u011b\u0159\u00ed\u017e", "address": {}}}, {"geometry": {"type": "Point", "coordinates": [14.0851541, 50.4397911]}, "type": "Feature", "id": 138, "properties": {"name": "Minipivovar Chot\u011b\u0161ov", "address": {}}}, {"geometry": {"type": "Point", "coordinates": [14.6811676, 49.4789649]}, "type": "Feature", "id": 139, "properties": {"url": "http://www.pivovarchotoviny.cz", "name": "Minipivovar Chotoviny", "address": {"city": "Chotoviny", "street": "Na n\u00e1dvo\u0159\u00ed 1", "email": "adamek@pivovarchotoviny.cz"}}}, {"geometry": {"type": "Point", "coordinates": [13.2930773, 49.6548327]}, "type": "Feature", "id": 114, "properties": {"url": "http://www.modra-hvezda.cz", "name": "Minipivovar Dob\u0159any", "address": {"email": "pivovar@modra-hvezda.cz"}}}, {"geometry": {"type": "Point", "coordinates": [18.2218978, 49.6238069]}, "type": "Feature", "id": 117, "properties": {"url": "http://www.pivovar-hukvaldy.cz", "name": "Minipivovar Doln\u00ed Sklenov", "address": {"email": "pivovar.hukvaldy@atlas.cz"}}}, {"geometry": {"type": "Point", "coordinates": [17.2689697, 49.9301991]}, "type": "Feature", "id": 242, "properties": {"url": "http://www.excelent.cz", "name": "Minipivovar Excelent R\u00fdma\u0159ov", "address": {"email": "hotel@excelent.cz"}}}, {"geometry": {"type": "Point", "coordinates": [16.4492365, 49.9008935]}, "type": "Feature", "id": 106, "properties": {"url": "http://www.pivovar-faltus.cz", "name": "Minipivovar Faltus \u010cesk\u00e1 T\u0159ebov\u00e1", "address": {}}}, {"geometry": {"type": "Point", "coordinates": [18.1784797, 49.8566537]}, "type": "Feature", "id": 194, "properties": {"url": "http://www.garageclub.cz", "name": "Minipivovar Garage Ostrava", "address": {}}}, {"geometry": {"type": "Point", "coordinates": [13.3807738, 49.7503849]}, "type": "Feature", "id": 201, "properties": {"url": "http://www.pivovargroll.cz", "name": "Minipivovar Groll", "address": {"email": "info@pivovargroll.cz"}}}, {"geometry": {"type": "Point", "coordinates": [15.4194987, 50.7824707]}, "type": "Feature", "id": 123, "properties": {"url": "http://www.sklarnaharrachov.cz", "name": "Minipivovar Harrachov", "address": {"email": "obchod@sklarnaharrachov.cz"}}}, {"geometry": {"type": "Point", "coordinates": [17.2011556, 50.2323404]}, "type": "Feature", "id": 141, "properties": {"url": "http://www.minipivovarjesenik.cz", "name": "Minipivovar Jesen\u00edk", "address": {"email": "info@minipivovarjesenik.cz"}}}, {"geometry": {"type": "Point", "coordinates": [13.6408514, 50.4968826]}, "type": "Feature", "id": 180, "properties": {"url": "http://www.mosteckykahan.cz", "name": "Minipivovar Kahan Most", "address": {}}}, {"geometry": {"type": "Point", "coordinates": [12.8719616, 50.2318521]}, "type": "Feature", "id": 146, "properties": {"url": "http://www.becherplatz.cz", "name": "Minipivovar Karel IV. Karlovy Vary", "address": {"email": "info@becherplatz.cz"}}}, {"geometry": {"type": "Point", "coordinates": [14.480255, 48.9756578]}, "type": "Feature", "id": 842, "properties": {"name": "Minipivovar Kn\u011b\u017e\u00ednek", "address": {"phone": "385 510 155", "email": "info@rkcnovedvory.cz"}}}, {"geometry": {"type": "Point", "coordinates": [14.4036984, 49.0030299]}, "type": "Feature", "id": 109, "properties": {"url": "http://www.knezinek.cz/", "name": "Minipivovar Kn\u011b\u017e\u00ednek, \u010cesk\u00e9 Bud\u011bjovice", "address": {"county": "\u010cesk\u00e9 Bud\u011bjovice", "street": "Nov\u00e9 Dvory 2235", "email": "info@rkcnovedvory.cz"}}}, {"geometry": {"type": "Point", "coordinates": [14.6030831, 50.9200834]}, "type": "Feature", "id": 267, "properties": {"url": "http://www.pivovar-kocour.cz", "name": "Minipivovar Kocour Varnsdorf", "address": {"city": "Varnsdorf", "street": "Rumbursk\u00e1 1920"}}}, {"geometry": {"type": "Point", "coordinates": [18.4805846, 49.6429863]}, "type": "Feature", "id": 284, "properties": {"name": "Minipivovar Kohutka Vy\u0161n\u00ed Lhoty", "address": {"email": "kohutka.pivovar@gmail.com"}}}, {"geometry": {"type": "Point", "coordinates": [17.0118544, 50.15326020000001]}, "type": "Feature", "id": 94, "properties": {"url": "http://www.pivovarkolstejn.cz", "name": "Minipivovar Kol\u0161tejn", "address": {"email": "pivovar@relaxkolstejn.cz"}}}, {"geometry": {"type": "Point", "coordinates": [14.8540452, 50.108264]}, "type": "Feature", "id": 151, "properties": {"url": "http://www.kounickypivovar.cz", "name": "Minipivovar Kounice", "address": {"email": "info@kounickypivovar.cz"}}}, {"geometry": {"type": "Point", "coordinates": [18.2352378, 49.7269547]}, "type": "Feature", "id": 154, "properties": {"url": "http://www.minipivovarkrmelin.cz", "name": "Minipivovar Krmel\u00edn", "address": {"email": "info@minipivovarkrmelin.cz"}}}, {"geometry": {"type": "Point", "coordinates": [15.8477913, 50.1748207]}, "type": "Feature", "id": 133, "properties": {"url": "http://www.ukohoutahk.cz", "name": "Minipivovar Kub\u00edk Hradec Kr\u00e1lov\u00e9", "address": {"email": "pkzhk@seznam.cz"}}}, {"geometry": {"type": "Point", "coordinates": [17.127667, 48.85040499999999]}, "type": "Feature", "id": 127, "properties": {"name": "Minipivovar Kunc Hodon\u00edn", "address": {"email": "minipivovar.kunc@seznam.cz"}}}, {"geometry": {"type": "Point", "coordinates": [16.4436303, 49.3090418]}, "type": "Feature", "id": 244, "properties": {"name": "Minipivovar Kvasar  Sentice", "address": {"email": "pivokvasar@gmail.com"}}}, {"geometry": {"type": "Point", "coordinates": [13.5793356, 49.0205972]}, "type": "Feature", "id": 158, "properties": {"url": "http://www.pekarnakvilda.cz", "name": "Minipivovar Kvilda", "address": {"email": "info@pekarnakvilda.cz"}}}, {"geometry": {"type": "Point", "coordinates": [14.1349922, 50.5350787]}, "type": "Feature", "id": 169, "properties": {"url": "http://www.minipivovarlabut.cz", "name": "Minipivovar Labu\u0165", "address": {"email": "info@olor.cz"}}}, {"geometry": {"type": "Point", "coordinates": [17.5872174, 49.5265407]}, "type": "Feature", "id": 164, "properties": {"url": "http://www.pivovar-lipnik.cz", "name": "Minipivovar Lipn\u00edk nad Be\u010dvou", "address": {"email": "radeksekanina@seznam.cz"}}}, {"geometry": {"type": "Point", "coordinates": [17.0407126, 49.2786456]}, "type": "Feature", "id": 864, "properties": {"name": "Minipivovar Li\u0161\u00e1k", "address": {"phone": "608 675 870"}}}, {"geometry": {"type": "Point", "coordinates": [16.6068371, 49.1950602]}, "type": "Feature", "id": 840, "properties": {"url": "http://www.lucky-bastard.cz", "name": "Minipivovar Lucky Bastard", "address": {"phone": "608 110 686", "email": "luckybastard@imakers.cz"}}}, {"geometry": {"type": "Point", "coordinates": [15.696888, 50.7345403]}, "type": "Feature", "id": 171, "properties": {"url": "http://www.lucnibouda.cz", "name": "Minipivovar     Lu\u010dn\u00ed bouda", "address": {"email": "info@lucnibouda.cz"}}}, {"geometry": {"type": "Point", "coordinates": [13.6799708, 49.22651949999999]}, "type": "Feature", "id": 172, "properties": {"name": "Minipivovar Ma\u010dice", "address": {}}}, {"geometry": {"type": "Point", "coordinates": [16.6342705, 48.8017426]}, "type": "Feature", "id": 177, "properties": {"url": "http://www.pivovarmamut.cz", "name": "Minipivovar Mamut Mikulov", "address": {"email": "info@pivovarmamut.cz"}}}, {"geometry": {"type": "Point", "coordinates": [13.851521, 49.9550193]}, "type": "Feature", "id": 101, "properties": {"url": "http://www.pivovarmatuska.cz", "name": "Minipivovar Matu\u0161ka Broumy", "address": {"email": "info@pivovarmatuska.cz"}}}, {"geometry": {"type": "Point", "coordinates": [17.3993799, 49.2916582]}, "type": "Feature", "id": 156, "properties": {"url": "http://www.pivomaxmilian.cz", "name": "Minipivovar Maxmilian", "address": {"email": "petr@pivomaxmilian.cz"}}}, {"geometry": {"type": "Point", "coordinates": [15.7715511, 49.9794963]}, "type": "Feature", "id": 174, "properties": {"url": "http://www.medlesice.cz", "name": "Minipivovar Medle\u0161ice", "address": {"email": "pivovar.medlesice@seznam.cz"}}}, {"geometry": {"type": "Point", "coordinates": [14.2586446, 49.9232946]}, "type": "Feature", "id": 161, "properties": {"url": "http://www.mmxpivo.com", "name": "Minipivovar MMX Lety", "address": {"email": "info@mmxpivo.cz"}}}, {"geometry": {"type": "Point", "coordinates": [16.9325287, 48.835605]}, "type": "Feature", "id": 179, "properties": {"url": "http://www.pivovar.in", "name": "Minipivovar Moravsk\u00fd \u017di\u017ekov", "address": {"email": "info@pivovar.in"}}}, {"geometry": {"type": "Point", "coordinates": [17.2500136, 49.5909236]}, "type": "Feature", "id": 187, "properties": {"url": "http://www.hostinec-moritz.cz", "name": "Minipivovar Moritz", "address": {"email": "info@hostinec-moritz.cz"}}}, {"geometry": {"type": "Point", "coordinates": [14.1430843, 49.7498645]}, "type": "Feature", "id": 186, "properties": {"url": "http://www.novyrybnik.com", "name": "Minipivovar Obo\u0159i\u0161t\u011b", "address": {"email": "penzion@novyrybnik.com"}}}, {"geometry": {"type": "Point", "coordinates": [17.3390467, 49.6306072]}, "type": "Feature", "id": 189, "properties": {"url": "http://www.svatokopeckepivo.cz", "name": "Minipivovar Olomouc - Svat\u00fd Kope\u010dek", "address": {"email": "sladek@svatokopeckepivo.cz"}}}, {"geometry": {"type": "Point", "coordinates": [17.5193787, 49.510056]}, "type": "Feature", "id": 190, "properties": {"url": "http://www.osecan.cz", "name": "Minipivovar Osek nad Be\u010dvou", "address": {}}}, {"geometry": {"type": "Point", "coordinates": [17.4507093, 49.4448467]}, "type": "Feature", "id": 233, "properties": {"url": "http://www.restauraceparnik.cz", "name": "Minipivovar Parn\u00edk P\u0159erov", "address": {"email": "parnikpivovar@seznam.cz"}}}, {"geometry": {"type": "Point", "coordinates": [16.6071714, 49.1962656]}, "type": "Feature", "id": 97, "properties": {"url": "http://www.hotelpegas.cz", "name": "Minipivovar Pegas Brno", "address": {}}}, {"geometry": {"type": "Point", "coordinates": [12.6373662, 50.17838]}, "type": "Feature", "id": 247, "properties": {"url": "http://www.pivopermon.cz", "name": "Minipivovar Permon", "address": {"city": "Sokolov", "street": "Komensk\u00e9ho 77", "postal_code": "356 01"}}}, {"geometry": {"type": "Point", "coordinates": [13.6130951, 49.8567597]}, "type": "Feature", "id": 235, "properties": {"name": "Minipivovar Radnice", "address": {"email": "pivovar@radnicenet.cz"}}}, {"geometry": {"type": "Point", "coordinates": [13.5038421, 49.6756061]}, "type": "Feature", "id": 254, "properties": {"url": "http://www.minipivovar-stahlavy.ic.cz", "name": "Minipivovar Radou\u0161 \u0160\u0165\u00e1hlavy", "address": {"email": "vilidestroj@seznam.cz"}}}, {"geometry": {"type": "Point", "coordinates": [17.1656129, 48.9200144]}, "type": "Feature", "id": 237, "properties": {"name": "Minipivovar Rat\u00ed\u0161kovice", "address": {"email": "restaurace@namlyne.com"}}}, {"geometry": {"type": "Point", "coordinates": [18.0714067, 50.01560749999999]}, "type": "Feature", "id": 238, "properties": {"url": "http://www.u-komarku.cz", "name": "Minipivovar Rohov", "address": {"email": "info@u-komarku.cz"}}}, {"geometry": {"type": "Point", "coordinates": [18.1368453, 49.4567323]}, "type": "Feature", "id": 240, "properties": {"name": "Minipivovar Ro\u017enov pod Radho\u0161t\u011bm", "address": {}}}, {"geometry": {"type": "Point", "coordinates": [18.373727, 49.89920480000001]}, "type": "Feature", "id": 93, "properties": {"url": "http://www.skreconskyzabak.cz", "name": "Minipivovar Sk\u0159e\u010do\u0148sk\u00fd \u017eab\u00e1k", "address": {"email": "zabak@zabak.cz"}}}, {"geometry": {"type": "Point", "coordinates": [15.1281321, 50.4382482]}, "type": "Feature", "id": 264, "properties": {"url": "http://www.minipivovar-ujkovice.cz", "name": "Minipivovar Slep\u00fd krtek Ujkovice", "address": {"email": "havlas.marek@seznam.cz"}}}, {"geometry": {"type": "Point", "coordinates": [17.8959025, 49.7907315]}, "type": "Feature", "id": 160, "properties": {"url": "http://www.pivovarslezan.cz", "name": "Minipivovar Slezan", "address": {}}}, {"geometry": {"type": "Point", "coordinates": [14.415684, 50.0696746]}, "type": "Feature", "id": 213, "properties": {"name": "Minipivovar SP\u0160PT", "address": {}}}, {"geometry": {"type": "Point", "coordinates": [13.48101, 49.0853486]}, "type": "Feature", "id": 248, "properties": {"url": "http://www.plzen-info.cz/penzion_srni_u_zlateho_srnce", "name": "Minipivovar Srn\u00ed", "address": {"email": "zlatysrnec@trendstav.cz"}}}, {"geometry": {"type": "Point", "coordinates": [18.1170638, 49.590927]}, "type": "Feature", "id": 256, "properties": {"url": "http://www.truba.cz", "name": "Minipivovar \u0160tramberk", "address": {"email": "pivo@relaxvpodhuri.cz"}}}, {"geometry": {"type": "Point", "coordinates": [15.0315538, 50.81062439999999]}, "type": "Feature", "id": 162, "properties": {"url": "http://www.minipivovar.eu", "name": "Minipivovar Stud\u00e1nka", "address": {}}}, {"geometry": {"type": "Point", "coordinates": [15.2086503, 50.0032722]}, "type": "Feature", "id": 149, "properties": {"url": "http://www.pivovarek.cz", "name": "Minipivovar Svat\u00fd J\u00e1n", "address": {"email": "info@pivovarek.cz"}}}, {"geometry": {"type": "Point", "coordinates": [17.2639387, 49.0258225]}, "type": "Feature", "id": 252, "properties": {"url": "http://www.syrovar.cz", "name": "Minipivovar Syrovar", "address": {}}}, {"geometry": {"type": "Point", "coordinates": [18.6808767, 49.6307402]}, "type": "Feature", "id": 260, "properties": {"name": "Minipivovar T\u0159inec", "address": {}}}, {"geometry": {"type": "Point", "coordinates": [14.5608065, 50.0015106]}, "type": "Feature", "id": 232, "properties": {"url": "http://www.ubezousku.cz", "name": "Minipivovar U Bezou\u0161k\u016f Pr\u016fhonice", "address": {"email": "ubezousku@seznam.cz"}}}, {"geometry": {"type": "Point", "coordinates": [14.4205379, 50.083495]}, "type": "Feature", "id": 223, "properties": {"url": "http://www.udvoukocek.cz", "name": "Minipivovar U dvou ko\u010dek", "address": {"email": "udvoukocek@volny.cz"}}}, {"geometry": {"type": "Point", "coordinates": [14.4169266, 50.0789076]}, "type": "Feature", "id": 222, "properties": {"url": "http://www.ufleku.cz", "name": "Minipivovar U Flek\u016f", "address": {"email": "ufleku@ufleku.cz"}}}, {"geometry": {"type": "Point", "coordinates": [14.2532375, 50.0777005]}, "type": "Feature", "id": 131, "properties": {"url": "http://www.uformanku.cz", "address": {}, "name": "Minipivovar U Form\u00e1nk\u016f Hostivice", "description": "Looks like they stopped to brew their own beer"}}, {"geometry": {"type": "Point", "coordinates": [15.9922361, 50.2009664]}, "type": "Feature", "id": 91, "properties": {"url": "http://www.pivovaruhusku.webnode.cz", "name": "Minipivovar U Hu\u0161k\u016f B\u011ble\u010d nad Orlic\u00ed", "address": {"email": "pepa.voltr@centrum.cz"}}}, {"geometry": {"type": "Point", "coordinates": [14.418389, 50.0828431]}, "type": "Feature", "id": 224, "properties": {"url": "http://www.umedvidku.cz", "name": "Minipivovar U Medv\u00eddk\u016f", "address": {"email": "info@umedvidku.cz"}}}, {"geometry": {"type": "Point", "coordinates": [16.4838763, 49.2073956]}, "type": "Feature", "id": 98, "properties": {"url": "http://www.uricharda.eu", "name": "Minipivovar U Richarda", "address": {"email": "restaurace@uricharda.eu"}}}, {"geometry": {"type": "Point", "coordinates": [13.3632974, 49.7703757]}, "type": "Feature", "id": 202, "properties": {"name": "Minipivovar U ryt\u00ed\u0159e Lochoty Plze\u0148", "address": {"email": "leas@volny.cz"}}}, {"geometry": {"type": "Point", "coordinates": [17.9950279, 49.3462712]}, "type": "Feature", "id": 280, "properties": {"url": "http://www.minipivovar.com", "name": "Minipivovar Val\u00e1\u0161ek Vset\u00edn", "address": {"email": "valasek@minipivovar.com"}}}, {"geometry": {"type": "Point", "coordinates": [18.3065264, 49.7727914]}, "type": "Feature", "id": 278, "properties": {"url": "http://www.hostinecvedvore.com", "name": "Minipivovar Ve Dvo\u0159e Vratimov", "address": {"email": "hostinecvedvore@seznam.cz"}}}, {"geometry": {"type": "Point", "coordinates": [13.0128679, 50.2844133]}, "type": "Feature", "id": 268, "properties": {"name": "Minipivovar Velichov", "address": {}}}, {"geometry": {"type": "Point", "coordinates": [16.3167059, 49.8709247]}, "type": "Feature", "id": 165, "properties": {"url": "http://www.veselka.lit.cz", "name": "Minipivovar Veselka Litomy\u0161l", "address": {}}}, {"geometry": {"type": "Point", "coordinates": [16.5819444, 49.0532788]}, "type": "Feature", "id": 275, "properties": {"url": "http://www.minipivovarkonicek.cz", "name": "Minipivovar Vojkovice", "address": {"email": "minipivovarkonicek@seznam.cz"}}}, {"geometry": {"type": "Point", "coordinates": [14.3127818, 48.6162187]}, "type": "Feature", "id": 285, "properties": {"url": "http://www.vysebrodskypivovar.cz", "name": "Minipivovar Vy\u0161\u0161\u00ed Brod", "address": {"email": "jiri.fojtl@seznam.cz"}}}, {"geometry": {"type": "Point", "coordinates": [16.4652007, 50.0873009]}, "type": "Feature", "id": 290, "properties": {"url": "http://www.pivovarzamberk.wz.cz", "name": "Minipivovar \u017damberk", "address": {"email": "jana.kalouska@seznam.cz"}}}, {"geometry": {"type": "Point", "coordinates": [17.9711369, 49.4718042]}, "type": "Feature", "id": 286, "properties": {"url": "http://www.pivovarbon.cz", "name": "Minipivovar Za\u0161ov\u00e1", "address": {}}}, {"geometry": {"type": "Point", "coordinates": [15.8189104, 49.6965601]}, "type": "Feature", "id": 295, "properties": {"name": "Minipivovar \u017dd\u00edrec nad Doubravou", "address": {"email": "minigal.ranc@seznam.cz"}}}, {"geometry": {"type": "Point", "coordinates": [13.2126518, 49.2255779]}, "type": "Feature", "id": 294, "properties": {"url": "http://www.hotelbelveder.cz", "name": "Minipivovar \u017delezn\u00e1 Ruda", "address": {"email": "info@hotelbelveder.cz"}}}, {"geometry": {"type": "Point", "coordinates": [18.0198558, 49.760017]}, "type": "Feature", "id": 92, "properties": {"url": "http://www.hoteluholubu.cz", "name": "Minipivovar Zobak B\u00edlovec", "address": {}}}, {"geometry": {"type": "Point", "coordinates": [14.67036, 48.8174832]}, "type": "Feature", "id": 298, "properties": {"name": "Minipivovar \u017dumberk", "address": {"email": "zpa@seznam.cz"}}}, {"geometry": {"type": "Point", "coordinates": [14.4223237, 50.0636063]}, "type": "Feature", "id": 879, "properties": {"address": {"city": "Praha", "country": "\u010cesko", "county": "okres Hlavn\u00ed m\u011bsto Praha", "state": "Praha", "street": "V Pevnosti", "postal_code": "12800"}, "name": "Na hradb\u00e1ch", "description": "Gorgeous garden"}}, {"geometry": {"type": "Point", "coordinates": [18.3506107, 49.5847339]}, "type": "Feature", "id": 121, "properties": {"url": "http://www.letohradek.estranky.cz/", "name": "Pikopivovar Letohr\u00e1dek", "address": {"email": "petr.maslonka@gmail.com"}}}, {"geometry": {"type": "Point", "coordinates": [18.1871339, 49.89745749999999]}, "type": "Feature", "id": 126, "properties": {"url": "http://www.pivovar-avar.estranky.cz", "name": "Pivovar Avar", "address": {"email": "info@pivovaravar.cz"}}}, {"geometry": {"type": "Point", "coordinates": [14.6904682, 49.78012830000001]}, "type": "Feature", "id": 89, "properties": {"url": "http://www.pivovarferdinand.cz", "name": "Pivovar Bene\u0161ov", "address": {"email": "ferdinand@pivovarferdinand.cz"}}}, {"geometry": {"type": "Point", "coordinates": [14.2094936, 49.9196727]}, "type": "Feature", "id": 866, "properties": {"url": "http://www.pivovarbobr.cz", "name": "Pivovar Bobr Zadn\u00ed T\u0159eba\u0148", "address": {"phone": "603 237 502", "email": "info@pivovarbobr.cz"}}}, {"geometry": {"type": "Point", "coordinates": [13.9584999, 49.5575135]}, "type": "Feature", "id": 103, "properties": {"url": "http://www.pivovar-herold.cz", "name": "Pivovar B\u0159eznice", "address": {"city": "B\u0159eznice", "street": "Z\u00e1meck\u00fd obvod 31", "postal_code": "262 72", "email": "pivovar.herold@atlas.cz"}}}, {"geometry": {"type": "Point", "coordinates": [16.3350853, 50.6036752]}, "type": "Feature", "id": 100, "properties": {"url": "http://www.pivovarbroumov.cz", "name": "Pivovar Broumov", "address": {"email": "pivovar@pivovarbroumov.cz"}}}, {"geometry": {"type": "Point", "coordinates": [14.4761973, 48.9935766]}, "type": "Feature", "id": 107, "properties": {"url": "http://www.budvar.cz", "name": "Pivovar Bud\u011bjovick\u00fd Budvar", "address": {}}}, {"geometry": {"type": "Point", "coordinates": [17.6832657, 49.2315035]}, "type": "Feature", "id": 868, "properties": {"url": "http://www.pivovarcechmanek.cz", "name": "Pivovar \u010cechm\u00e1nek", "address": {"phone": "778 411 410"}}}, {"geometry": {"type": "Point", "coordinates": [16.5810782, 49.4151648]}, "type": "Feature", "id": 105, "properties": {"url": "http://www.pivovarcernahora.cz", "name": "Pivovar \u010cern\u00e1 Hora", "address": {}}}, {"geometry": {"type": "Point", "coordinates": [14.2968921, 48.81692]}, "type": "Feature", "id": 110, "properties": {"url": "http://www.eggenberg.cz", "name": "Pivovar \u010cesk\u00fd Krumlov", "address": {"email": "pivovar@eggenberg.cz"}}}, {"geometry": {"type": "Point", "coordinates": [13.1110986, 50.3836452]}, "type": "Feature", "id": 300, "properties": {"url": "http://www.pivochalupnik.cz", "name": "Pivovar Chalupn\u00edk Per\u0161tejn", "address": {"phone": "605 274 328", "email": "info@pivochalupnik.cz"}}}, {"geometry": {"type": "Point", "coordinates": [12.7273239, 49.8932115]}, "type": "Feature", "id": 136, "properties": {"url": "http://www.chodovar.cz", "name": "Pivovar Chodovar", "address": {}}}, {"geometry": {"type": "Point", "coordinates": [15.8023175, 49.69641379999999]}, "type": "Feature", "id": 137, "properties": {"url": "http://www.pivovarchotebor.cz", "name": "Pivovar Chot\u011bbo\u0159", "address": {"email": "media@pivovarchotebor.cz"}}}, {"geometry": {"type": "Point", "coordinates": [16.0798927, 49.1308808]}, "type": "Feature", "id": 112, "properties": {"url": "http://www.pivovar-dalesice.cz", "name": "Pivovar Dale\u0161ice", "address": {}}}, {"geometry": {"type": "Point", "coordinates": [17.2115507, 49.63919550000001]}, "type": "Feature", "id": 128, "properties": {"url": "http://www.pivovarekmelicharek.cz", "name": "Pivov\u00e1rek Melich\u00e1rek", "address": {"email": "petr.melicharek@email.cz"}}}, {"geometry": {"type": "Point", "coordinates": [18.3330453, 49.6768189]}, "type": "Feature", "id": 844, "properties": {"url": "http://www.pivovarekmorava.cz", "name": "Pivov\u00e1rek Morava Fr\u00fddek-M\u00edstek", "address": {"phone": "702 287 589", "email": "info@pivovarekmorava.cz"}}}, {"geometry": {"type": "Point", "coordinates": [15.0086905, 49.1385203]}, "type": "Feature", "id": 848, "properties": {"name": "Pivov\u00e1rek p\u00e1n\u016f z R\u016f\u017ee", "address": {"phone": "775 165 511", "email": "panuzruze@seznam.cz"}}}, {"geometry": {"type": "Point", "coordinates": [13.3678223, 49.7467528]}, "type": "Feature", "id": 203, "properties": {"name": "Pivov\u00e1rek & restaurant U Pa\u0161\u00e1ka", "address": {"email": "pivopasak@seznam.cz"}}}, {"geometry": {"type": "Point", "coordinates": [16.9276936, 50.0699273]}, "type": "Feature", "id": 122, "properties": {"url": "http://www.holba.cz", "name": "Pivovar Hanu\u0161ovice", "address": {}}}, {"geometry": {"type": "Point", "coordinates": [15.576611, 49.6102556]}, "type": "Feature", "id": 124, "properties": {"url": "http://www.hbrebel.cz", "name": "Pivovar Havl\u00ed\u010dk\u016fv Brod", "address": {}}}, {"geometry": {"type": "Point", "coordinates": [15.914948, 49.76002]}, "type": "Feature", "id": 125, "properties": {"url": "http://www.rychtar.cz", "name": "Pivovar Hlinsko", "address": {"email": "pivo@rychtar.cz"}}}, {"geometry": {"type": "Point", "coordinates": [14.5524232, 50.0451493]}, "type": "Feature", "id": 208, "properties": {"url": "http://www.pivovar-hostivar.cz", "name": "Pivovar Hostivar Praha", "address": {"email": "info@pivovar-hostivar.cz"}}}, {"geometry": {"type": "Point", "coordinates": [14.0441213, 49.82344]}, "type": "Feature", "id": 880, "properties": {"url": "http://pivovarhostomice.cz", "name": "Pivovar Hostomice", "address": {"city": "Hostomice", "street": "Pivovarska 214"}}}, {"geometry": {"type": "Point", "coordinates": [14.0420555, 50.65974869999999]}, "type": "Feature", "id": 266, "properties": {"url": "http://www.pivovarnarychte.cz", "name": "Pivovar hotel Na Rycht\u011b", "address": {}}}, {"geometry": {"type": "Point", "coordinates": [17.8890198, 49.0741339]}, "type": "Feature", "id": 860, "properties": {"url": "http://www.pivovar-hradek.cz", "name": "Pivovar Hr\u00e1dek", "address": {"email": "info@pivovar-hradek.cz"}}}, {"geometry": {"type": "Point", "coordinates": [15.3597836, 49.539955]}, "type": "Feature", "id": 135, "properties": {"url": "http://www.bernard.cz", "address": {"email": "pivovar@bernard.cz"}, "name": "Pivovar Humpolec", "description": "Bernard"}}, {"geometry": {"type": "Point", "coordinates": [15.5825542, 49.39741009999999]}, "type": "Feature", "id": 142, "properties": {"url": "http://www.pivovar-jihlava.cz", "name": "Pivovar Jihlava", "address": {"email": "ms@pivovar-jihlava.cz"}}}, {"geometry": {"type": "Point", "coordinates": [15.0293867, 49.7768551]}, "type": "Feature", "id": 145, "properties": {"url": "http://www.pivovarkacov.cz", "name": "Pivovar K\u00e1cov", "address": {"email": "pivovar@pivovarkacov.cz"}}}, {"geometry": {"type": "Point", "coordinates": [13.4126351, 50.45955679999999]}, "type": "Feature", "id": 846, "properties": {"url": "http://www.karasekastulpner.cz", "name": "Pivovar Kar\u00e1sek a St\u00fclpner", "address": {"phone": "602 668 899", "email": "info@karasekastulpner.cz"}}}, {"geometry": {"type": "Point", "coordinates": [14.9447287, 50.5234085]}, "type": "Feature", "id": 148, "properties": {"url": "http://www.pivovarklaster.cz", "name": "Pivovar Kl\u00e1\u0161ter Hradi\u0161t\u011b nad Jizerou", "address": {}}}, {"geometry": {"type": "Point", "coordinates": [14.4823829, 50.1082969]}, "type": "Feature", "id": 887, "properties": {"url": "http://www.pivovarkolcavka.cz/", "name": "Pivovar Kol\u010davka", "address": {"city": "Praha 8", "street": "Nad Kol\u010davkou 8"}}}, {"geometry": {"type": "Point", "coordinates": [13.0020932, 49.4025594]}, "type": "Feature", "id": 152, "properties": {"url": "http://www.pivovarkout.eu", "name": "Pivovar Kout na \u0160umav\u011b", "address": {"email": "janskala@email.cz"}}}, {"geometry": {"type": "Point", "coordinates": [15.3170051, 49.2595805]}, "type": "Feature", "id": 129, "properties": {"url": "http://www.pivovar-kozlicek.cz", "name": "Pivovar Kozl\u00ed\u010dek", "address": {"email": "milan.kozlicek@pivovar-kozlicek.cz"}}}, {"geometry": {"type": "Point", "coordinates": [13.775132, 50.1722568]}, "type": "Feature", "id": 157, "properties": {"url": "http://www.krusovice.cz", "name": "Pivovar Kru\u0161ovice", "address": {"email": "distribuce@krusovice.net"}}}, {"geometry": {"type": "Point", "coordinates": [12.5313622, 50.1240414]}, "type": "Feature", "id": 159, "properties": {"url": "http://www.pivovar-kynsperk.cz/", "name": "Pivovar Kyn\u0161perk nad Oh\u0159\u00ed", "address": {"email": "pivovar-kynsperk@seznam.cz"}}}, {"geometry": {"type": "Point", "coordinates": [17.074787, 49.6988089]}, "type": "Feature", "id": 166, "properties": {"url": "http://www.litovel.cz", "name": "Pivovar Litovel", "address": {"email": "pivo@litovel.cz"}}}, {"geometry": {"type": "Point", "coordinates": [17.597181, 49.2056572]}, "type": "Feature", "id": 288, "properties": {"url": "http://www.zlinskysvec.cz", "name": "Pivovar Malenovice", "address": {"email": "zlinskysvec@email.cz"}}}, {"geometry": {"type": "Point", "coordinates": [15.147971, 50.6107902]}, "type": "Feature", "id": 173, "properties": {"url": "http://www.pivorohozec.cz", "name": "Pivovar Mal\u00fd Rohozec", "address": {}}}, {"geometry": {"type": "Point", "coordinates": [17.027571, 48.8600719]}, "type": "Feature", "id": 116, "properties": {"url": "http://www.pivovarmazak.cz", "name": "Pivovar Maz\u00e1k", "address": {"email": "info@pivovarmazak.cz"}}}, {"geometry": {"type": "Point", "coordinates": [15.8355086, 50.2101081]}, "type": "Feature", "id": 134, "properties": {"url": "http://www.rambousek.wz.cz", "name": "Pivovar Milana Rambouska", "address": {"email": "rambousek.milan@centrum.cz"}}}, {"geometry": {"type": "Point", "coordinates": [13.5189352, 49.028744]}, "type": "Feature", "id": 855, "properties": {"name": "Pivovar Modrava", "address": {"phone": "776 888 088", "email": "modrava.penzion@seznam.cz"}}}, {"geometry": {"type": "Point", "coordinates": [15.9202118, 50.076449]}, "type": "Feature", "id": 843, "properties": {"url": "http://www.pivovarmordyr.cz", "name": "Pivovar Mord\u00fd\u0159", "address": {"phone": "604618668, 731779746", "email": "pivovarmordyr@seznam.cz"}}}, {"geometry": {"type": "Point", "coordinates": [16.1713792, 50.4149678]}, "type": "Feature", "id": 182, "properties": {"url": "http://www.primator.cz", "name": "Pivovar N\u00e1chod", "address": {"email": "marketing@primator.cz"}}}, {"geometry": {"type": "Point", "coordinates": [18.4263362, 49.66072519999999]}, "type": "Feature", "id": 184, "properties": {"url": "http://www.radegast.cz", "name": "Pivovar No\u0161ovice", "address": {"email": "pilsner@ileo.cz"}}}, {"geometry": {"type": "Point", "coordinates": [15.5244278, 50.4872537]}, "type": "Feature", "id": 183, "properties": {"url": "http://www.novopackepivo.cz", "name": "Pivovar Nov\u00e1 Paka", "address": {"email": "broucek@novapaka.cz"}}}, {"geometry": {"type": "Point", "coordinates": [17.9007451, 49.9409216]}, "type": "Feature", "id": 856, "properties": {"url": "http://www.nova-sladovna.cz", "name": "Pivovar Nov\u00e1 Sladovna", "address": {"phone": "553 820 130", "email": "gastronomieopava@gastro-opava.cz"}}}, {"geometry": {"type": "Point", "coordinates": [15.0340976, 50.1766273]}, "type": "Feature", "id": 185, "properties": {"url": "http://www.postriziny.cz", "name": "Pivovar Nymburk", "address": {"email": "nymburk@postriziny.cz"}}}, {"geometry": {"type": "Point", "coordinates": [18.2736615, 49.83880449999999]}, "type": "Feature", "id": 192, "properties": {"url": "http://www.ostravar.cz", "name": "Pivovar Ostravar", "address": {}}}, {"geometry": {"type": "Point", "coordinates": [15.7620468, 50.03550320000001]}, "type": "Feature", "id": 198, "properties": {"url": "http://www.pernstejn.cz", "address": {"email": "pivovar@pernstejn.cz"}, "name": "Pivovar Pardubice", "description": "Pern\u0161tejn"}}, {"geometry": {"type": "Point", "coordinates": [15.2205436, 49.4305512]}, "type": "Feature", "id": 199, "properties": {"url": "http://www.pivovarpoutnik.cz", "name": "Pivovar Pelh\u0159imov", "address": {}}}, {"geometry": {"type": "Point", "coordinates": [14.7828609, 50.4189881]}, "type": "Feature", "id": 205, "properties": {"url": "http://www.podkovan.cz", "name": "Pivovar Podkov\u00e1\u0148", "address": {"city": "Kov\u00e1\u0148", "street": "Kov\u00e1\u0148 21", "postal_code": "294 30", "email": "acpodkovan@podkovan.cz"}}}, {"geometry": {"type": "Point", "coordinates": [13.9820523, 49.6898811]}, "type": "Feature", "id": 858, "properties": {"url": "http://www.pivovarpodlesi.cz", "name": "Pivovar Podles\u00ed", "address": {"phone": "326 531 949", "email": "info@pivovarpodlesi.cz"}}}, {"geometry": {"type": "Point", "coordinates": [13.4845964, 49.7537615]}, "type": "Feature", "id": 852, "properties": {"url": "http://www.ubytovani-podlipou.cz", "name": "Pivovar Pod L\u00edpou Ky\u0161ice", "address": {"phone": "777 333 159", "email": "info@ubytovani-podlipou.cz"}}}, {"geometry": {"type": "Point", "coordinates": [16.2600654, 49.7107427]}, "type": "Feature", "id": 206, "properties": {"url": "http://www.pivovar-policka.cz", "name": "Pivovar Poli\u010dka", "address": {"email": "pivovar@pivovar-policka.cz"}}}, {"geometry": {"type": "Point", "coordinates": [17.4476692, 49.4502971]}, "type": "Feature", "id": 234, "properties": {"url": "http://www.zubr.cz", "name": "Pivovar P\u0159erov", "address": {}}}, {"geometry": {"type": "Point", "coordinates": [14.2178965, 49.204813]}, "type": "Feature", "id": 231, "properties": {"url": "http://www.pivovar-protivin.cz", "name": "Pivovar Protiv\u00edn", "address": {"city": "Protiv\u00edn", "street": "Pivovar 168", "email": "obchod@pivo-platan.cz"}}}, {"geometry": {"type": "Point", "coordinates": [18.5689801, 49.6792969]}, "type": "Feature", "id": 861, "properties": {"url": "http://www.radas.cz", "name": "Pivovar Radas St\u0159\u00edte\u017e", "address": {"phone": "558 694 426", "email": "radas@radas.cz"}}}, {"geometry": {"type": "Point", "coordinates": [13.7278696, 50.1067014]}, "type": "Feature", "id": 236, "properties": {"url": "http://www.rakovnikbeer.cz", "name": "Pivovar Rakovn\u00edk", "address": {"email": "info@rakovnikbeer.cz"}}}, {"geometry": {"type": "Point", "coordinates": [17.1166086, 49.4722584]}, "type": "Feature", "id": 229, "properties": {"url": "http://www.ukralejecminka.cz", "name": "Pivovar & restaurant U kr\u00e1le Je\u010dm\u00ednka", "address": {}}}, {"geometry": {"type": "Point", "coordinates": [15.6451021, 49.3412444]}, "type": "Feature", "id": 263, "properties": {"url": "http://www.pivoruprenz.cz", "name": "Pivovar Ruprenz", "address": {"email": "pivoruprenz@email.cz"}}}, {"geometry": {"type": "Point", "coordinates": [16.6855513, 49.075615]}, "type": "Feature", "id": 176, "properties": {"name": "Pivovar Santon", "address": {"email": "pivosanton@seznam.cz"}}}, {"geometry": {"type": "Point", "coordinates": [15.6085329, 50.642965]}, "type": "Feature", "id": 276, "properties": {"url": "http://www.hotel-vrchlabi.cz", "name": "Pivovarsk\u00e1 ba\u0161ta Vrchlab\u00ed", "address": {"email": "hotelbasta@hotelbasta.cz"}}}, {"geometry": {"type": "Point", "coordinates": [18.2885301, 49.8400174]}, "type": "Feature", "id": 193, "properties": {"url": "http://www.hobitclub.net", "address": {}, "name": "Pivovarsk\u00fd d\u016fm Ostrava", "description": "Biovar"}}, {"geometry": {"type": "Point", "coordinates": [14.4238317, 50.07536080000001]}, "type": "Feature", "id": 211, "properties": {"url": "http://www.gastroinfo.cz/pivodum", "name": "Pivovarsk\u00fd d\u016fm Praha", "address": {"email": "pivodum@iol.cz"}}}, {"geometry": {"type": "Point", "coordinates": [14.2334855, 50.0624699]}, "type": "Feature", "id": 132, "properties": {"url": "http://www.pivovarskydvur.cz", "name": "Pivovarsk\u00fd dv\u016fr Ch\u00fdn\u011b", "address": {"email": "info@pivovarskydvur.cz"}}}, {"geometry": {"type": "Point", "coordinates": [14.3809597, 49.3056871]}, "type": "Feature", "id": 118, "properties": {"url": "http://www.pivovarlipan.com", "name": "Pivovarsk\u00fd dv\u016fr Lipan Dra\u017ei\u010d", "address": {"email": "info@pivovarlipan.cz"}}}, {"geometry": {"type": "Point", "coordinates": [13.4142959, 49.6986885]}, "type": "Feature", "id": 204, "properties": {"url": "http://www.purkmistr.cz", "name": "Pivovarsk\u00fd dv\u016fr Plze\u0148", "address": {"email": "pivovar@purkmistr.cz"}}}, {"geometry": {"type": "Point", "coordinates": [14.1983324, 49.4308845]}, "type": "Feature", "id": 289, "properties": {"url": "http://www.pivovar-zvikov.cz", "name": "Pivovarsk\u00fd dv\u016fr  Zv\u00edkov", "address": {"county": "okres P\u00edsek", "city": "Zv\u00edkovsk\u00e9 Podhrad\u00ed", "street": "Zv\u00edkovsk\u00e9 Podhrad\u00ed 92", "postal_code": "39701", "country": "\u010cesko"}}}, {"geometry": {"type": "Point", "coordinates": [16.5917511, 49.1910689]}, "type": "Feature", "id": 99, "properties": {"url": "http://www.starobrno.com", "name": "Pivovar Starobrno", "address": {}}}, {"geometry": {"type": "Point", "coordinates": [14.405538, 50.06988519999999]}, "type": "Feature", "id": 214, "properties": {"url": "http://www.staropramen.cz", "name": "Pivovar Staropramen", "address": {}}}, {"geometry": {"type": "Point", "coordinates": [13.897523, 49.25959030000001]}, "type": "Feature", "id": 249, "properties": {"url": "http://www.pivovar-strakonice.cz", "name": "Pivovar Strakonice", "address": {}}}, {"geometry": {"type": "Point", "coordinates": [15.0542928, 50.572885]}, "type": "Feature", "id": 250, "properties": {"url": "http://www.pivovarsvijany.cz", "name": "Pivovar Svijany", "address": {"email": "pivovar@volny.cz"}}}, {"geometry": {"type": "Point", "coordinates": [14.7722918, 49.00263349999999]}, "type": "Feature", "id": 259, "properties": {"url": "http://www.pivovar-regent.cz", "name": "Pivovar T\u0159ebo\u0148", "address": {"email": "obchod@pivovar-regent.cz"}}}, {"geometry": {"type": "Point", "coordinates": [15.9094205, 50.5614285]}, "type": "Feature", "id": 257, "properties": {"url": "http://www.pivovar-krakonos.cz", "name": "Pivovar Trutnov", "address": {"email": "pivo_krakonos@volny.cz"}}}, {"geometry": {"type": "Point", "coordinates": [15.6812167, 50.4040911]}, "type": "Feature", "id": 178, "properties": {"name": "Pivovar U boji\u0161t\u011b 1866 Milet\u00edn", "address": {"email": "sladekchmelka@centrum.cz"}}}, {"geometry": {"type": "Point", "coordinates": [17.6552572, 49.0240168]}, "type": "Feature", "id": 262, "properties": {"url": "http://www.pivovar-janacek.cz", "name": "Pivovar Uhersk\u00fd Brod", "address": {"email": "info@pivovar-janacek.cz"}}}, {"geometry": {"type": "Point", "coordinates": [15.8089328, 50.4197995]}, "type": "Feature", "id": 119, "properties": {"url": "http://www.pivo-tambor.cz", "name": "Pivovar ve Dvo\u0159e Kr\u00e1lov\u00e9 nad Labem", "address": {"email": "pivovar@pivo-tambor.cz"}}}, {"geometry": {"type": "Point", "coordinates": [14.1389457, 50.66465119999999]}, "type": "Feature", "id": 269, "properties": {"name": "Pivovar Velk\u00e9 B\u0159ezno", "address": {}}}, {"geometry": {"type": "Point", "coordinates": [14.6360806, 49.92253179999999]}, "type": "Feature", "id": 271, "properties": {"url": "http://www.kozel.cz", "name": "Pivovar Velk\u00e9 Popovice", "address": {"email": "pilsner@ileo.cz"}}}, {"geometry": {"type": "Point", "coordinates": [14.4500819, 50.08689769999999]}, "type": "Feature", "id": 227, "properties": {"url": "http://www.pivovarvictor.cz", "name": "Pivovar Victor", "address": {"email": "info@pivovarvictor.cz"}}}, {"geometry": {"type": "Point", "coordinates": [15.0887543, 50.752216]}, "type": "Feature", "id": 279, "properties": {"url": "http://www.pivo-konrad.cz", "address": {"city": "Liberec", "street": "Pivovarsk\u00e1 164", "postal_code": "463 11"}, "name": "Pivovar Vratislavice nad Nisou", "description": "Konrad"}}, {"geometry": {"type": "Point", "coordinates": [16.9991774, 49.2761193]}, "type": "Feature", "id": 283, "properties": {"url": "http://www.pivovyskov.cz", "name": "Pivovar Vy\u0161kov", "address": {"email": "info@pivovyskov.cz"}}}, {"geometry": {"type": "Point", "coordinates": [14.3899441, 50.1033305]}, "type": "Feature", "id": 219, "properties": {"url": "http://www.vscht.cz", "name": "Pivovar Vysok\u00e9 \u0161koly chemicko-technologick\u00e9", "address": {}}}, {"geometry": {"type": "Point", "coordinates": [14.3917918, 49.6144136]}, "type": "Feature", "id": 282, "properties": {"url": "http://www.pivovar-vysokychlumec.cz", "name": "Pivovar Vysok\u00fd Chlumec", "address": {"email": "pivovar@lobkowicz.cz"}}}, {"geometry": {"type": "Point", "coordinates": [13.54186, 50.3322455]}, "type": "Feature", "id": 291, "properties": {"url": "http://www.zateckypivovar.cz", "name": "Pivovar \u017datec", "address": {}}}, {"geometry": {"type": "Point", "coordinates": [13.5162378, 49.5370106]}, "type": "Feature", "id": 867, "properties": {"url": "http://www.pivovarzhurak.cz", "name": "Pivovar Zh\u016f\u0159\u00e1k", "address": {"email": "chris@pivovarzhurak.cz"}}}, {"geometry": {"type": "Point", "coordinates": [15.5660861, 49.8935082]}, "type": "Feature", "id": 297, "properties": {"url": "http://www.kutilkovapalirna.cz", "name": "Pivovar \u017dlebsk\u00e9 Chvalovice", "address": {"email": "kpalirna@seznam.cz"}}}, {"geometry": {"type": "Point", "coordinates": [13.8068286, 50.35284069999999]}, "type": "Feature", "id": 853, "properties": {"url": "http://www.pivozloun.cz", "name": "Pivovar ZLoun", "address": {"phone": "725061111,775101101"}}}, {"geometry": {"type": "Point", "coordinates": [13.386083, 49.746626]}, "type": "Feature", "id": 200, "properties": {"url": "http://www.prazdroj.cz", "name": "Plze\u0148sk\u00fd Prazdroj a.s.", "address": {"email": "pilsner@ileo.cz"}}}, {"geometry": {"type": "Point", "coordinates": [13.7077335, 50.1935831]}, "type": "Feature", "id": 181, "properties": {"name": "Podd\u017eb\u00e1nsk\u00fd pivovar Mut\u011bjovice", "address": {}}}, {"geometry": {"type": "Point", "coordinates": [18.3594952, 49.59363519999999]}, "type": "Feature", "id": 120, "properties": {"url": "http://www.hotel-beskyd.cz", "name": "Podhorsk\u00fd pivovar Fr\u00fddlant", "address": {"email": "info@hotel-beskyd.cz"}}}, {"geometry": {"type": "Point", "coordinates": [15.8698529, 49.217534]}, "type": "Feature", "id": 258, "properties": {"url": "http://www.pivovar-trebic.cz", "name": "Podkl\u00e1\u0161tern\u00ed pivovar T\u0159eb\u00ed\u010d", "address": {"city": "T\u0159eb\u00ed\u010d", "street": "Nad Z\u00e1mkem 7"}}}, {"geometry": {"type": "Point", "coordinates": [13.5457856, 50.32717599999999]}, "type": "Feature", "id": 293, "properties": {"url": "http://www.chizatec.cz", "name": "Pokusn\u00fd minipivovar Chmela\u0159sk\u00e9ho institutu", "address": {}}}, {"geometry": {"type": "Point", "coordinates": [14.4230509, 50.0796977]}, "type": "Feature", "id": 216, "properties": {"url": "http://www.npivovar.cz", "name": "Prvn\u00ed novom\u011bstsk\u00fd restaura\u010dn\u00ed pivovar", "address": {"email": "sales@npivovar.cz"}}}, {"geometry": {"type": "Point", "coordinates": [15.590945, 49.3963516]}, "type": "Feature", "id": 143, "properties": {"url": "http://www.radnicni-jihlava.cz", "name": "Radni\u010dn\u00ed restaurace a pivovar Jihlava", "address": {"email": "info@radnicni-jihlava.cz"}}}, {"geometry": {"type": "Point", "coordinates": [13.399152, 49.6498468]}, "type": "Feature", "id": 111, "properties": {"url": "http://www.ubizona.eu", "name": "Restaurace a hostinsk\u00fd pivovar U Bizona", "address": {"email": "ubizona@seznam.cz"}}}, {"geometry": {"type": "Point", "coordinates": [13.1736169, 49.4673582]}, "type": "Feature", "id": 140, "properties": {"url": "http://www.restauracestaraskola.cz", "name": "Restaurace a minipivovar Star\u00e1 \u0161kola", "address": {"email": "info@restauracestaraskola.cz"}}}, {"geometry": {"type": "Point", "coordinates": [14.4144295, 50.0835622]}, "type": "Feature", "id": 226, "properties": {"url": "http://www.prazskymost.cz", "name": "Restaurace a minipivovar U Val\u0161\u016f", "address": {}}}, {"geometry": {"type": "Point", "coordinates": [14.4561034, 50.1064499]}, "type": "Feature", "id": 210, "properties": {"url": "http://www.pivovarmarina.cz", "name": "Restaurace a pivovar Marina Hole\u0161ovice", "address": {"email": "rezervace@pivovarmarina.cz"}}}, {"geometry": {"type": "Point", "coordinates": [14.5286219, 49.5742051]}, "type": "Feature", "id": 243, "properties": {"url": "http://www.vitekzprcice.cz", "name": "Restaura\u010dn\u00ed pivovar V\u00edtek z Pr\u010dice", "address": {"email": "hrad@vitekzprcice.cz"}}}, {"geometry": {"type": "Point", "coordinates": [13.5445623, 50.32454689999999]}, "type": "Feature", "id": 292, "properties": {"name": "Restaurant a minipivovar U Orloje", "address": {}}}, {"geometry": {"type": "Point", "coordinates": [13.8101385, 50.3514418]}, "type": "Feature", "id": 854, "properties": {"url": "http://www.lounskyzejdlik.cz", "name": "Rodinn\u00fd minipivovar Domov", "address": {"phone": "731 453 082"}}}, {"geometry": {"type": "Point", "coordinates": [15.0022204, 49.4715827]}, "type": "Feature", "id": 197, "properties": {"url": "http://www.minipivovarpacov.cz", "name": "Rodinn\u00fd minipivovar Pacov", "address": {"city": "Pacov", "street": "Jana Autengrubera 318 ", "postal_code": "395 01"}}}, {"geometry": {"type": "Point", "coordinates": [15.1125134, 50.7606303]}, "type": "Feature", "id": 163, "properties": {"url": "http://www.pivovarvendelin.cz", "name": "Rodinn\u00fd minipivovar - Vendel\u00edn Krko\u0161ka", "address": {}}}, {"geometry": {"type": "Point", "coordinates": [14.0717761, 49.9565181]}, "type": "Feature", "id": 90, "properties": {"url": "http://www.berounskymedved.com", "name": "Rodinn\u00fd pivovar Berounsk\u00fd medv\u011bd", "address": {"email": "berounskymedved@seznam.cz"}}}, {"geometry": {"type": "Point", "coordinates": [17.1014746, 50.0733123]}, "type": "Feature", "id": 170, "properties": {"url": "http://www.kvasslav.cz", "name": "Rodinn\u00fd pivovar Brav\u016fr", "address": {"email": "halaxa@kvasslav.cz"}}}, {"geometry": {"type": "Point", "coordinates": [15.6032807, 50.6549013]}, "type": "Feature", "id": 277, "properties": {"url": "http://www.pivohendrych.cz", "name": "Rodinn\u00fd pivovar Hendrych Vrchlab\u00ed", "address": {"email": "info@pivohendrych.cz"}}}, {"geometry": {"type": "Point", "coordinates": [14.6934712, 50.3529467]}, "type": "Feature", "id": 175, "properties": {"name": "Rodinn\u00fd pivovar Neumann", "address": {"email": "vneu@pivovar-neumann.cz"}}}, {"geometry": {"type": "Point", "coordinates": [15.7415809, 50.1763009]}, "type": "Feature", "id": 228, "properties": {"url": "http://www.pivovarpropper.cz", "name": "Rodinn\u00fd pivovar Propper", "address": {"email": "pivovarpropper@seznam.cz"}}}, {"geometry": {"type": "Point", "coordinates": [13.9777368, 49.7911593]}, "type": "Feature", "id": 144, "properties": {"url": "http://www.pivovar-vilem.cz", "name": "Rodinn\u00fd pivovar Vil\u00e9m", "address": {"email": "pivovar-vilem@email.cz"}}}, {"geometry": {"type": "Point", "coordinates": [12.7458293, 50.1805865]}, "type": "Feature", "id": 167, "properties": {"url": "http://www.hotel-loket.cz", "name": "Rodinn\u00fd pivovar v Lokti", "address": {"email": "info@hotel-loket.cz"}}}, {"geometry": {"type": "Point", "coordinates": [14.373271, 50.131026]}, "type": "Feature", "id": 218, "properties": {"name": "\u0160koln\u00ed pivovar Praha-Suchdol", "address": {}}}, {"geometry": {"type": "Point", "coordinates": [16.8887353, 49.14965360000001]}, "type": "Feature", "id": 246, "properties": {"url": "http://www.slavkovskypivovar.cz", "name": "Slavkovsk\u00fd pivovar", "address": {"email": "info@slavkovskypivovar.cz"}}}, {"geometry": {"type": "Point", "coordinates": [14.4399189, 50.0628892]}, "type": "Feature", "id": 221, "properties": {"name": "Sousedsk\u00fd pivovar U Banseth\u016f", "address": {"email": "basta.vlada@seznam.cz"}}}, {"geometry": {"type": "Point", "coordinates": [14.2824948, 50.0440874]}, "type": "Feature", "id": 220, "properties": {"url": "http://www.pivovartrebonice.com", "name": "Sta\u0148k\u016fv rukod\u011bln\u00fd pivov\u00e1rek", "address": {"email": "mydas@volny.cz"}}}, {"geometry": {"type": "Point", "coordinates": [16.1622203, 50.2947505]}, "type": "Feature", "id": 115, "properties": {"name": "Staro\u010desk\u00fd pivov\u00e1rek Dobru\u0161ka", "address": {}}}, {"geometry": {"type": "Point", "coordinates": [14.1067465, 50.1416986]}, "type": "Feature", "id": 147, "properties": {"url": "http://www.starokladno.cz", "name": "Starokladensk\u00fd pivovar U Kozl\u00edk\u016f", "address": {}}}, {"geometry": {"type": "Point", "coordinates": [14.4183588, 50.0855598]}, "type": "Feature", "id": 225, "properties": {"url": "http://www.u3r.cz", "name": "Starom\u011bstsk\u00fd pivovar U     t\u0159\u00ed r\u016f\u017e\u00ed Praha", "address": {}}}, {"geometry": {"type": "Point", "coordinates": [14.5955642, 49.9169612]}, "type": "Feature", "id": 255, "properties": {"url": "http://www.stirinskastodola.cz", "name": "\u0160ti\u0159\u00ednsk\u00fd pivovar Magn\u00e1t", "address": {"email": "info@stirinskastodola.cz"}}}, {"geometry": {"type": "Point", "coordinates": [13.7749668, 49.0524611]}, "type": "Feature", "id": 273, "properties": {"url": "http://www.sumavskypivovar.cz", "name": "\u0160umavsk\u00fd pivovar ve Vimperku", "address": {"email": "rezervace@sumavskypivovar.cz"}}}, {"geometry": {"type": "Point", "coordinates": [17.2587146, 49.5958647]}, "type": "Feature", "id": 188, "properties": {"url": "http://www.svatovaclavsky-pivovar.cz", "name": "Svatov\u00e1clavsk\u00fd pivovar Origin\u00e1l", "address": {}}}, {"geometry": {"type": "Point", "coordinates": [16.4608236, 49.75217869999999]}, "type": "Feature", "id": 251, "properties": {"url": "http://www.pivovareknakopecku.cz", "name": "Svitavsk\u00fd pivov\u00e1rek Na Kope\u010dku", "address": {"email": "info@pivovareknakopecku.cz"}}}, {"geometry": {"type": "Point", "coordinates": [14.466298, 50.1152747]}, "type": "Feature", "id": 212, "properties": {"url": "http://www.pivovarubulovky.cz", "name": "U Bulovky Richter Pub", "address": {"email": "richterpub@seznam.cz"}}}, {"geometry": {"type": "Point", "coordinates": [14.3542091, 50.1490523]}, "type": "Feature", "id": 265, "properties": {"url": "http://www.unetickypivovar.cz", "name": "\u00dan\u011btick\u00fd pivovar", "address": {}}}, {"geometry": {"type": "Point", "coordinates": [14.3971002, 49.9995123]}, "type": "Feature", "id": 878, "properties": {"address": {"city": "Praha", "country": "\u010cesko", "county": "okres Hlavn\u00ed m\u011bsto Praha", "state": "Praha", "street": "Na star\u00e9 145", "postal_code": "15900"}, "name": "U Pigiho", "description": "Very special, unique, relaxing. Pigi is a character"}}, {"geometry": {"type": "Point", "coordinates": [18.2565719, 49.5903943]}, "type": "Feature", "id": 153, "properties": {"url": "http://www.relaxvpodhuri.cz", "name": "Vala\u0161sk\u00fd pivovar Kozlovice", "address": {}}}, {"geometry": {"type": "Point", "coordinates": [16.6252715, 49.5333467]}, "type": "Feature", "id": 274, "properties": {"name": "Vesnick\u00fd pivovar Ohrada", "address": {}}}, {"geometry": {"type": "Point", "coordinates": [18.2402603, 49.807317]}, "type": "Feature", "id": 195, "properties": {"url": "http://www.pivovarzabreh.cz", "name": "Z\u00e1meck\u00fd minipivovar Ostrava - Z\u00e1b\u0159eh", "address": {}}}, {"geometry": {"type": "Point", "coordinates": [14.1108871, 49.8733562]}, "type": "Feature", "id": 281, "properties": {"url": "http://www.zamecky-dvur.cz", "name": "Z\u00e1meck\u00fd pivovar a hostinec U Pan\u00ed Magdaleny V\u0161eradice", "address": {"email": "pivovar@zamecky-dvur.cz"}}}, {"geometry": {"type": "Point", "coordinates": [16.5167311, 49.0636422]}, "type": "Feature", "id": 870, "properties": {"url": "http://www.pivovarbratcice.cz", "name": "Z\u00e1meck\u00fd pivovar Brat\u010dice", "address": {"city": "Brat\u010dice", "country": "\u010cesko", "county": "okres Brno-venkov", "state": "Jihov\u00fdchod", "street": "Brat\u010dice 106", "postal_code": "66464"}}}, {"geometry": {"type": "Point", "coordinates": [16.8747162, 48.7600908]}, "type": "Feature", "id": 102, "properties": {"url": "http://www.pivovarbreclav.cz", "name": "Z\u00e1meck\u00fd pivovar B\u0159eclav", "address": {}}}, {"geometry": {"type": "Point", "coordinates": [13.2490662, 50.1046274]}, "type": "Feature", "id": 299, "properties": {"url": "http://www.chyse.com", "name": "Z\u00e1meck\u00fd pivovar Chy\u0161e", "address": {"phone": "728 948 868", "email": "pivovar@chyse.com"}}}, {"geometry": {"type": "Point", "coordinates": [15.1714604, 50.3690277]}, "type": "Feature", "id": 113, "properties": {"url": "http://www.pivovardetenice.cz", "name": "Z\u00e1meck\u00fd pivovar D\u011btenice", "address": {"email": "info@detenice.cz"}}}, {"geometry": {"type": "Point", "coordinates": [16.5230839, 49.0651465]}, "type": "Feature", "id": 191, "properties": {"name": "Z\u00e1meck\u00fd pivovar Oslavany", "address": {"email": "oslavanskypivovar@seznam.cz"}}}, {"geometry": {"type": "Point", "coordinates": [15.2172504, 49.53094859999999]}, "type": "Feature", "id": 296, "properties": {"url": "http://zeliv.eu/klasterni-pivovar", "name": "\u017delivsk\u00fd kl\u00e1\u0161tern\u00ed pivovar", "address": {"email": "info@pivovar.zeliv.cz"}}}, {"geometry": {"type": "Point", "coordinates": [13.9260359, 50.2710591]}, "type": "Feature", "id": 287, "properties": {"url": "http://www.zichoveckypivovar.cz", "name": "Zichoveck\u00fd pivovar", "address": {"email": "zichoveckypivovar@email.cz"}}}]}