{"type":"FeatureCollection", "features":[{"geometry": {"type": "Point", "coordinates": [14.0708363, 49.9677782]}, "type": "Feature", "id": 871, "properties": {"url": "http://www.jinakava.cz", "address": {"city": "Beroun", "street": "U kas\u00e1ren 192"}, "name": "Jin\u00e1 k\u00e1va", "description": "Dobra k\u00e1va a kol\u00e1\u010de"}}, {"geometry": {"type": "Point", "coordinates": [14.549455, 50.0463438]}, "type": "Feature", "id": 876, "properties": {"url": "http://www.pivovar-hostivar.cz/", "address": {"city": "Praha", "street": "Lochot\u00ednsk\u00e1 656"}, "name": "Pivovar Hostivar", "description": "Pry vari dobre pivo,  i restaurace ma byt fajn"}}, {"geometry": {"type": "Point", "coordinates": [14.5053776, 50.0398795]}, "type": "Feature", "id": 877, "properties": {"url": "http://www.ujorgose.cz", "address": {"city": "Praha 4", "street": "Miroveho hnuti 2137/7"}, "name": "Recka restaurace U Jorgose", "description": "Doporuceno jako dobra recka restaurace,  byl jsem parkrat na obede a vcelku v poho, mila obsluha."}}, {"geometry": {"type": "Point", "coordinates": [14.493928, 50.0102764]}, "type": "Feature", "id": 872, "properties": {"url": "http://www.seberak.cz", "address": {"city": "Praha 4", "street": "\u0160eber\u00e1k"}, "name": "Restaurace \u0160eber\u00e1k", "description": "Doporucil bracha\nBernard a dobre varej"}}, {"geometry": {"type": "Point", "coordinates": [14.5056224, 49.9807848]}, "type": "Feature", "id": 874, "properties": {"address": {"city": "Vestec", "street": "Vesteck\u00e1 1"}, "name": "U \u0160ime\u010dk\u016f", "description": "Obl\u00edbena brachova"}}, {"geometry": {"type": "Point", "coordinates": [14.4179946, 50.0832963]}, "type": "Feature", "id": 873, "properties": {"address": {"city": "Praha 1", "street": "Bartolom\u011bjsk\u00e1"}, "name": "Vzorkovna", "description": "Unik\u00e1tn\u00ed intou\u0161k\u00e9 doup\u011b v centru Prahy"}}]}