<?xml version='1.0' encoding='UTF-8'?>
<gpx xmlns:gpxx="http://www.garmin.com/xmlschemas/GpxExtensions/v3" xmlns:xsi="http://www.w3.org/2001/XMLSchema-instance" xmlns="http://www.topografix.com/GPX/1/1" creator="MyPlaces" version="1.1" xsi:schemaLocation="http://www.topografix.com/GPX/1/1 http://www.topografix.com/GPX/1/1/gpx.xsd http://www.garmin.com/xmlschemas/GpxExtensions/v3 http://www8.garmin.com/xmlschemas/GpxExtensions/v3/GpxExtensionsv3.xsd"><metadata><name>Ivan's favorite pubs</name><desc>My favorite pubs - those I enjoy to visit where im nearby and have time</desc></metadata><wpt lat="49.956763" lon="14.0720862"><name>Berounský medvěd</name><desc>Nice pub in brewery of same name. Nice prices</desc><link href="http://www.berounskymedved.com/restaurace.html"/><extensions><gpxx:WaypointExtension><gpxx:Address><gpxx:StreetAddress>Tyršova</gpxx:StreetAddress><gpxx:City>Beroun</gpxx:City><gpxx:State>Střední Čechy</gpxx:State><gpxx:Country>Česko</gpxx:Country><gpxx:PostalCode>26601</gpxx:PostalCode></gpxx:Address></gpxx:WaypointExtension></extensions></wpt><wpt lat="49.9209461" lon="14.2091846"><name>Country Hospoda Na Ostrově</name><desc>Nice pub in a camp on small island on Berounka River. </desc><link href="https://www.google.cz/url?sa=t&amp;source=web&amp;rct=j&amp;ei=YkXEUpC9La2v4QSCsYHYDg&amp;url=https://www.facebook.com/countryhospodanaostrove&amp;cd=&amp;ved=0CCwQ_Bc&amp;usg=AFQjCNErjiSp3ZTsl4UnJ_zQX4jQ-UMSMQ"/><extensions><gpxx:WaypointExtension><gpxx:Address><gpxx:StreetAddress>U Mlýna</gpxx:StreetAddress><gpxx:City>Zadní Třebaň</gpxx:City><gpxx:State>Střední Čechy</gpxx:State><gpxx:Country>Česko</gpxx:Country></gpxx:Address></gpxx:WaypointExtension></extensions></wpt><wpt lat="49.9244111" lon="14.2747969"><name>Jez Dobré naděje</name><desc>Nice garden,  with lovely view river and Castle. Good beer (recently Hostomice 10) &amp; food</desc><link href="http://www.campdobrichovice.cz/restaurace.php"/></wpt><wpt lat="50.0735621" lon="14.4290596"><name>Kulový blesk</name><desc>Great place to taste different beers. </desc><link href="http://www.restauracekulovyblesk.cz"/><extensions><gpxx:WaypointExtension><gpxx:Address><gpxx:StreetAddress>Sokolská 13</gpxx:StreetAddress><gpxx:City>Praha 2</gpxx:City></gpxx:Address></gpxx:WaypointExtension></extensions></wpt><wpt lat="49.9860003" lon="14.3648332"><name>Nádražní hospoda v Radotínĕ</name><desc>Classic of railway station pubs, stinky, dirty, with unpleasant bartender - one just have to love it.</desc><extensions><gpxx:WaypointExtension><gpxx:Address><gpxx:StreetAddress>Vrážská 43/5</gpxx:StreetAddress><gpxx:City>Praha</gpxx:City><gpxx:State>Praha</gpxx:State><gpxx:Country>Česko</gpxx:Country><gpxx:PostalCode>15300</gpxx:PostalCode></gpxx:Address></gpxx:WaypointExtension></extensions></wpt><wpt lat="50.0636396" lon="14.4222759"><name>Na Hradbách</name><desc>Nice beer garden on Vyšehrad</desc></wpt><wpt lat="50.0742631" lon="14.4418073"><name>Na Pošte</name><desc>Place of my youth</desc><link href="http://www.uposty.cz"/><extensions><gpxx:WaypointExtension><gpxx:Address><gpxx:StreetAddress>Moravská 10</gpxx:StreetAddress><gpxx:City>Praha</gpxx:City><gpxx:State>Praha</gpxx:State><gpxx:Country>Česko</gpxx:Country><gpxx:PostalCode>12000</gpxx:PostalCode></gpxx:Address></gpxx:WaypointExtension></extensions></wpt><wpt lat="49.9593272" lon="14.3189675"><name>Na Stadionu</name><desc>Good Staropramen from tank, good food. Volf hooow, hooow</desc><link href="http://www.sk-cernosice.cz/restaurace.htm"/><extensions><gpxx:WaypointExtension><gpxx:Address><gpxx:StreetAddress>Poštovní 1244</gpxx:StreetAddress><gpxx:City>Černošice</gpxx:City><gpxx:State>Střední Čechy</gpxx:State><gpxx:Country>Česko</gpxx:Country><gpxx:PostalCode>252 28</gpxx:PostalCode></gpxx:Address></gpxx:WaypointExtension></extensions></wpt><wpt lat="50.0613232" lon="14.4088697"><name>Oáza na Smíchovském nádraží</name><desc>Wonderful dirty railway station pub. Magor was going there. </desc><link href="http://www.restauraceoaza.cz"/><extensions><gpxx:WaypointExtension><gpxx:Address><gpxx:StreetAddress>Nádražní 1</gpxx:StreetAddress><gpxx:City>Praha 5</gpxx:City><gpxx:Country>Česká republika</gpxx:Country></gpxx:Address></gpxx:WaypointExtension></extensions></wpt><wpt lat="50.0621944" lon="14.2334747"><name>Pivovarská krčma</name><desc>Krčma is much better then restaurant</desc><link href="http://www.pivovarskydvur.cz"/><extensions><gpxx:WaypointExtension><gpxx:Address><gpxx:StreetAddress>Hlavní</gpxx:StreetAddress><gpxx:City>Chýně</gpxx:City></gpxx:Address></gpxx:WaypointExtension></extensions></wpt><wpt lat="50.1491314" lon="14.3543243"><name>Pivovarská restaurace Unětice</name><desc>Best place to taste uneticke pivo. Good food. </desc><link href="http://www.unetickypivovar.cz/pivovarska-restaurace"/><extensions><gpxx:WaypointExtension><gpxx:Address><gpxx:StreetAddress>Rýznerova</gpxx:StreetAddress><gpxx:City>Únětice</gpxx:City><gpxx:State>Střední Čechy</gpxx:State><gpxx:Country>Česko</gpxx:Country><gpxx:PostalCode>25068</gpxx:PostalCode></gpxx:Address></gpxx:WaypointExtension></extensions></wpt><wpt lat="49.9506262" lon="14.3155557"><name>Pod Lípou</name><desc>Close to home</desc><link href="http://www.mestocernosice.cz/ubytovani-a-pohostinstvi/restaurace-pod-lipou/"/><extensions><gpxx:WaypointExtension><gpxx:Address><gpxx:StreetAddress>Dobřichovická 754</gpxx:StreetAddress><gpxx:City>Černošice</gpxx:City><gpxx:PostalCode>25228</gpxx:PostalCode></gpxx:Address></gpxx:WaypointExtension></extensions></wpt><wpt lat="50.099355" lon="14.4244856"><name>Prašivka</name><desc>Classic common (class 4) pub. Good beer, each week different special local beer. Love from first sight. </desc><extensions><gpxx:WaypointExtension><gpxx:Address><gpxx:StreetAddress>Ovenecká 1022/15</gpxx:StreetAddress><gpxx:City>Praha</gpxx:City><gpxx:State>Praha</gpxx:State><gpxx:Country>Česko</gpxx:Country><gpxx:PostalCode>17000</gpxx:PostalCode></gpxx:Address></gpxx:WaypointExtension></extensions></wpt><wpt lat="50.0504912" lon="14.4819438"><name>První pivní tramway</name><desc>Local beers,  nice decorations in the interior. Former tram stop. </desc><link href="http://www.prvnipivnitramway.cz"/><extensions><gpxx:WaypointExtension><gpxx:Address><gpxx:StreetAddress>Na Chodovci 1a</gpxx:StreetAddress><gpxx:City>Praha 4</gpxx:City><gpxx:Country>Česká republika</gpxx:Country></gpxx:Address></gpxx:WaypointExtension></extensions></wpt><wpt lat="50.0881878" lon="14.3918378"><name>U Černého vola</name><desc>One of very few survived Mala Strana pubs, only one where I prefer Kozel to Pilsner (from sentiment)</desc><link href="http://www.ucernehovola.cz"/><extensions><gpxx:WaypointExtension><gpxx:Address><gpxx:StreetAddress>Loretánské náměstí 1</gpxx:StreetAddress><gpxx:City>Praha 1</gpxx:City></gpxx:Address></gpxx:WaypointExtension></extensions></wpt><wpt lat="49.8640301" lon="14.2152186"><name>U Derneru (Čunčí huba)</name><desc>Good place to get  refreshment on trip though Brdy. Good food.Too many bikers. </desc><extensions><gpxx:WaypointExtension><gpxx:Address><gpxx:StreetAddress>Na Rovinách</gpxx:StreetAddress><gpxx:City>Kytín</gpxx:City><gpxx:State>Střední Čechy</gpxx:State><gpxx:Country>Česko</gpxx:Country><gpxx:PostalCode>26728</gpxx:PostalCode></gpxx:Address></gpxx:WaypointExtension></extensions></wpt><wpt lat="50.0891959" lon="14.403221"><name>U Hrocha</name><desc>One of best pilsner beers around Prague.  Preserves atmosphere of former "malostranska hospoda"</desc><extensions><gpxx:WaypointExtension><gpxx:Address><gpxx:StreetAddress>Thunovská 10</gpxx:StreetAddress><gpxx:City>Praha</gpxx:City><gpxx:State>Praha</gpxx:State><gpxx:Country>Česko</gpxx:Country><gpxx:PostalCode>11800</gpxx:PostalCode></gpxx:Address></gpxx:WaypointExtension></extensions></wpt><wpt lat="50.0816509" lon="14.4220394"><name>U Jelínků</name><desc>Legendary Pilsner pub -   beer is best with their 'Talian' sausage. </desc><extensions><gpxx:WaypointExtension><gpxx:Address><gpxx:StreetAddress>Charvátova 33/1 </gpxx:StreetAddress><gpxx:City>Praha 1</gpxx:City><gpxx:Country>Česká republika</gpxx:Country><gpxx:PostalCode>11000</gpxx:PostalCode></gpxx:Address></gpxx:WaypointExtension></extensions></wpt><wpt lat="49.9409276" lon="14.3286088"><name>U Králů</name><desc>Nice pub in Mokropsy</desc><link href="http://restauraceukralu.webnode.cz/o-nas/"/><extensions><gpxx:WaypointExtension><gpxx:Address><gpxx:StreetAddress>Dr. Jánského 595</gpxx:StreetAddress><gpxx:City>Černošice</gpxx:City></gpxx:Address></gpxx:WaypointExtension></extensions></wpt><wpt lat="49.9608388" lon="14.1304404"><name>U Krobiána</name><desc>Nice but often overcrowded with bikes</desc><link href="http://hostim.viacarolina.cz"/><extensions><gpxx:WaypointExtension><gpxx:Address><gpxx:StreetAddress>Hostim 12</gpxx:StreetAddress><gpxx:City>Beroun</gpxx:City><gpxx:State>Střední Čechy</gpxx:State><gpxx:Country>Česko</gpxx:Country><gpxx:PostalCode>26601</gpxx:PostalCode></gpxx:Address></gpxx:WaypointExtension></extensions></wpt><wpt lat="49.9822991" lon="14.3645811"><name>U Ondřeje</name><desc>Small one on bike track from Prague. Favorite stop for thirsty bikers and striders</desc><extensions><gpxx:WaypointExtension><gpxx:Address><gpxx:StreetAddress>Výpadová</gpxx:StreetAddress><gpxx:City>Praha</gpxx:City><gpxx:State>Praha</gpxx:State><gpxx:Country>Česko</gpxx:Country><gpxx:PostalCode>15300</gpxx:PostalCode></gpxx:Address></gpxx:WaypointExtension></extensions></wpt><wpt lat="50.0616503" lon="14.3981785"><name>U Prince Miroslava</name><desc>Beers from small local breweries.</desc><link href="http://uprincemiroslava.eu/"/><extensions><gpxx:WaypointExtension><gpxx:Address><gpxx:StreetAddress>K Vodojemu 2</gpxx:StreetAddress><gpxx:City>Praha 5</gpxx:City><gpxx:State>Praha</gpxx:State><gpxx:Country>Česká Republika</gpxx:Country><gpxx:PostalCode>15000</gpxx:PostalCode></gpxx:Address></gpxx:WaypointExtension></extensions></wpt><wpt lat="50.0880429" lon="14.4155753"><name>U Rudolfina</name><desc>Good Pilsner beer pub, prefer top bar. </desc><extensions><gpxx:WaypointExtension><gpxx:Address><gpxx:StreetAddress>Křižovnická 60/10</gpxx:StreetAddress><gpxx:City>Praha</gpxx:City><gpxx:State>Praha</gpxx:State><gpxx:Country>Česko</gpxx:Country><gpxx:PostalCode>11000</gpxx:PostalCode></gpxx:Address></gpxx:WaypointExtension></extensions></wpt><wpt lat="50.0825537" lon="14.4311861"><name>U Staré pošty</name><desc>My favorite stop on way home</desc><link href="http://u-stare-posty.wz.cz"/><extensions><gpxx:WaypointExtension><gpxx:Address><gpxx:StreetAddress>Opletalova 17</gpxx:StreetAddress><gpxx:City>Praha 1</gpxx:City></gpxx:Address></gpxx:WaypointExtension></extensions></wpt><wpt lat="50.0997989" lon="14.4339216"><name>U sv. Antoníčka</name><desc>I ve lived nearby for 7 years,  now after more than 10 years it's still the same -incredible. </desc><extensions><gpxx:WaypointExtension><gpxx:Address><gpxx:StreetAddress>Podplukovníka Sochora 983/20</gpxx:StreetAddress><gpxx:City>Praha</gpxx:City><gpxx:State>Praha</gpxx:State><gpxx:Country>Česko</gpxx:Country><gpxx:PostalCode>17000</gpxx:PostalCode></gpxx:Address></gpxx:WaypointExtension></extensions></wpt><wpt lat="49.9616083" lon="14.2923278"><name>U Valtrů</name><desc>Cool village pub</desc><link href="http://www.firmy.cz/detail/2633957-hostinec-u-valtru-trebotov-solopisky.html"/><extensions><gpxx:WaypointExtension><gpxx:Address><gpxx:StreetAddress>Karlštejnská </gpxx:StreetAddress><gpxx:City>Solopisky</gpxx:City><gpxx:State>Střední Čechy</gpxx:State><gpxx:Country>Česko</gpxx:Country></gpxx:Address></gpxx:WaypointExtension></extensions></wpt><wpt lat="49.8856842" lon="14.2042079"><name>U Zrzavého paviána</name><desc>Very good food, nice place, but bit overcrouded with bikers</desc><extensions><gpxx:WaypointExtension><gpxx:Address><gpxx:StreetAddress>K Vodárně</gpxx:StreetAddress><gpxx:City>Halouny</gpxx:City><gpxx:State>Střední Čechy</gpxx:State><gpxx:Country>Česko</gpxx:Country><gpxx:PostalCode>26728</gpxx:PostalCode></gpxx:Address></gpxx:WaypointExtension></extensions></wpt><wpt lat="49.9407326" lon="14.3197507"><name>V Lavičkách</name><desc>Settlement (osada) pub on bank of Berounka River.  Classic </desc><link href="http://www.mestocernosice.cz/ubytovani-a-pohostinstvi/restaurace-v-lavickach/"/><extensions><gpxx:WaypointExtension><gpxx:Address><gpxx:StreetAddress>Osada Staré řeky</gpxx:StreetAddress><gpxx:City>Černošice</gpxx:City><gpxx:Country>Česko</gpxx:Country></gpxx:Address></gpxx:WaypointExtension></extensions></wpt></gpx>