{"type":"FeatureCollection", "features":[{"geometry": {"type": "Point", "coordinates": [14.0720862, 49.956763]}, "type": "Feature", "id": 830, "properties": {"url": "http://www.berounskymedved.com/restaurace.html", "address": {"city": "Beroun", "country": "\u010cesko", "county": "okres Beroun", "state": "St\u0159edn\u00ed \u010cechy", "street": "Tyr\u0161ova", "postal_code": "26601"}, "name": "Berounsk\u00fd medv\u011bd", "description": "Nice pub in brewery of same name. Nice prices"}}, {"geometry": {"type": "Point", "coordinates": [14.2091846, 49.9209461]}, "type": "Feature", "id": 815, "properties": {"url": "https://www.google.cz/url?sa=t&source=web&rct=j&ei=YkXEUpC9La2v4QSCsYHYDg&url=https://www.facebook.com/countryhospodanaostrove&cd=&ved=0CCwQ_Bc&usg=AFQjCNErjiSp3ZTsl4UnJ_zQX4jQ-UMSMQ", "address": {"county": "okres Beroun", "city": "Zadn\u00ed T\u0159eba\u0148", "state": "St\u0159edn\u00ed \u010cechy", "street": "U Ml\u00fdna", "country": "\u010cesko"}, "name": "Country Hospoda Na Ostrov\u011b", "description": "Nice pub in a camp on small island on Berounka River. "}}, {"geometry": {"type": "Point", "coordinates": [14.2747969, 49.9244111]}, "type": "Feature", "id": 884, "properties": {"url": "http://www.campdobrichovice.cz/restaurace.php", "name": "Jez Dobr\u00e9 nad\u011bje", "description": "Nice garden,  with lovely view river and Castle. Good beer (recently Hostomice 10) & food"}}, {"geometry": {"type": "Point", "coordinates": [14.4290596, 50.0735621]}, "type": "Feature", "id": 875, "properties": {"url": "http://www.restauracekulovyblesk.cz", "address": {"city": "Praha 2", "street": "Sokolsk\u00e1 13"}, "name": "Kulov\u00fd blesk", "description": "Great place to taste different beers. "}}, {"geometry": {"type": "Point", "coordinates": [14.3648332, 49.9860003]}, "type": "Feature", "id": 883, "properties": {"address": {"city": "Praha", "country": "\u010cesko", "county": "okres Hlavn\u00ed m\u011bsto Praha", "state": "Praha", "street": "Vr\u00e1\u017esk\u00e1 43/5", "postal_code": "15300"}, "name": "N\u00e1dra\u017en\u00ed hospoda v Radot\u00edn\u0115", "description": "Classic of railway station pubs, stinky, dirty, with unpleasant bartender - one just have to love it."}}, {"geometry": {"type": "Point", "coordinates": [14.4222759, 50.0636396]}, "type": "Feature", "id": 882, "properties": {"name": "Na Hradb\u00e1ch", "description": "Nice beer garden on Vy\u0161ehrad"}}, {"geometry": {"type": "Point", "coordinates": [14.4418073, 50.0742631]}, "type": "Feature", "id": 804, "properties": {"url": "http://www.uposty.cz", "address": {"city": "Praha", "country": "\u010cesko", "county": "okres Hlavn\u00ed m\u011bsto Praha", "state": "Praha", "street": "Moravsk\u00e1 10", "postal_code": "12000"}, "name": "Na Po\u0161te", "description": "Place of my youth"}}, {"geometry": {"type": "Point", "coordinates": [14.3189675, 49.9593272]}, "type": "Feature", "id": 811, "properties": {"url": "http://www.sk-cernosice.cz/restaurace.htm", "address": {"city": "\u010cerno\u0161ice", "country": "\u010cesko", "county": "okres Praha-z\u00e1pad", "state": "St\u0159edn\u00ed \u010cechy", "street": "Po\u0161tovn\u00ed 1244", "postal_code": "252 28"}, "name": "Na Stadionu", "description": "Good Staropramen from tank, good food. Volf hooow, hooow"}}, {"geometry": {"type": "Point", "coordinates": [14.4088697, 50.0613232]}, "type": "Feature", "id": 806, "properties": {"url": "http://www.restauraceoaza.cz", "address": {"city": "Praha 5", "street": "N\u00e1dra\u017en\u00ed 1", "country": "\u010cesk\u00e1 republika"}, "name": "O\u00e1za na Sm\u00edchovsk\u00e9m n\u00e1dra\u017e\u00ed", "description": "Wonderful dirty railway station pub. Magor was going there. "}}, {"geometry": {"type": "Point", "coordinates": [14.2334747, 50.0621944]}, "type": "Feature", "id": 836, "properties": {"url": "http://www.pivovarskydvur.cz", "address": {"county": "Praha-z\u00e1pad", "city": "Ch\u00fdn\u011b", "street": "Hlavn\u00ed"}, "name": "Pivovarsk\u00e1 kr\u010dma", "description": "Kr\u010dma is much better then restaurant"}}, {"geometry": {"type": "Point", "coordinates": [14.3543243, 50.1491314]}, "type": "Feature", "id": 833, "properties": {"url": "http://www.unetickypivovar.cz/pivovarska-restaurace", "address": {"city": "\u00dan\u011btice", "country": "\u010cesko", "county": "okres Praha-z\u00e1pad", "state": "St\u0159edn\u00ed \u010cechy", "street": "R\u00fdznerova", "postal_code": "25068"}, "name": "Pivovarsk\u00e1 restaurace Un\u011btice", "description": "Best place to taste uneticke pivo. Good food. "}}, {"geometry": {"type": "Point", "coordinates": [14.3155557, 49.9506262]}, "type": "Feature", "id": 808, "properties": {"url": "http://www.mestocernosice.cz/ubytovani-a-pohostinstvi/restaurace-pod-lipou/", "address": {"city": "\u010cerno\u0161ice", "street": "Dob\u0159ichovick\u00e1 754", "postal_code": "25228"}, "name": "Pod L\u00edpou", "description": "Close to home"}}, {"geometry": {"type": "Point", "coordinates": [14.4244856, 50.099355]}, "type": "Feature", "id": 834, "properties": {"address": {"city": "Praha", "country": "\u010cesko", "county": "okres Hlavn\u00ed m\u011bsto Praha", "state": "Praha", "street": "Oveneck\u00e1 1022/15", "postal_code": "17000"}, "name": "Pra\u0161ivka", "description": "Classic common (class 4) pub. Good beer, each week different special local beer. Love from first sight. "}}, {"geometry": {"type": "Point", "coordinates": [14.4819438, 50.0504912]}, "type": "Feature", "id": 814, "properties": {"url": "http://www.prvnipivnitramway.cz", "address": {"city": "Praha 4", "street": "Na Chodovci 1a", "country": "\u010cesk\u00e1 republika"}, "name": "Prvn\u00ed pivn\u00ed tramway", "description": "Local beers,  nice decorations in the interior. Former tram stop. "}}, {"geometry": {"type": "Point", "coordinates": [14.3918378, 50.0881878]}, "type": "Feature", "id": 832, "properties": {"url": "http://www.ucernehovola.cz", "address": {"city": "Praha 1", "street": "Loret\u00e1nsk\u00e9 n\u00e1m\u011bst\u00ed 1"}, "name": "U \u010cern\u00e9ho vola", "description": "One of very few survived Mala Strana pubs, only one where I prefer Kozel to Pilsner (from sentiment)"}}, {"geometry": {"type": "Point", "coordinates": [14.2152186, 49.8640301]}, "type": "Feature", "id": 886, "properties": {"address": {"city": "Kyt\u00edn", "country": "\u010cesko", "county": "okres Praha-z\u00e1pad", "state": "St\u0159edn\u00ed \u010cechy", "street": "Na Rovin\u00e1ch", "postal_code": "26728"}, "name": "U Derneru (\u010cun\u010d\u00ed huba)", "description": "Good place to get  refreshment on trip though Brdy. Good food.Too many bikers. "}}, {"geometry": {"type": "Point", "coordinates": [14.403221, 50.0891959]}, "type": "Feature", "id": 803, "properties": {"address": {"city": "Praha", "country": "\u010cesko", "county": "okres Hlavn\u00ed m\u011bsto Praha", "state": "Praha", "street": "Thunovsk\u00e1 10", "postal_code": "11800"}, "name": "U Hrocha", "description": "One of best pilsner beers around Prague.  Preserves atmosphere of former \"malostranska hospoda\""}}, {"geometry": {"type": "Point", "coordinates": [14.4220394, 50.0816509]}, "type": "Feature", "id": 838, "properties": {"address": {"city": "Praha 1", "street": "Charv\u00e1tova 33/1 ", "postal_code": "11000", "country": "\u010cesk\u00e1 republika"}, "name": "U Jel\u00ednk\u016f", "description": "Legendary Pilsner pub -   beer is best with their 'Talian' sausage. "}}, {"geometry": {"type": "Point", "coordinates": [14.3286088, 49.9409276]}, "type": "Feature", "id": 809, "properties": {"url": "http://restauraceukralu.webnode.cz/o-nas/", "address": {"city": "\u010cerno\u0161ice", "street": "Dr. J\u00e1nsk\u00e9ho 595"}, "name": "U Kr\u00e1l\u016f", "description": "Nice pub in Mokropsy"}}, {"geometry": {"type": "Point", "coordinates": [14.1304404, 49.9608388]}, "type": "Feature", "id": 837, "properties": {"url": "http://hostim.viacarolina.cz", "address": {"city": "Beroun", "country": "\u010cesko", "county": "okres Beroun", "state": "St\u0159edn\u00ed \u010cechy", "street": "Hostim 12", "postal_code": "26601"}, "name": "U Krobi\u00e1na", "description": "Nice but often overcrowded with bikes"}}, {"geometry": {"type": "Point", "coordinates": [14.3645811, 49.9822991]}, "type": "Feature", "id": 812, "properties": {"address": {"city": "Praha", "country": "\u010cesko", "county": "okres Hlavn\u00ed m\u011bsto Praha", "state": "Praha", "street": "V\u00fdpadov\u00e1", "postal_code": "15300"}, "name": "U Ond\u0159eje", "description": "Small one on bike track from Prague. Favorite stop for thirsty bikers and striders"}}, {"geometry": {"type": "Point", "coordinates": [14.3981785, 50.0616503]}, "type": "Feature", "id": 807, "properties": {"url": "http://uprincemiroslava.eu/", "address": {"city": "Praha 5", "state": "Praha", "street": "K Vodojemu 2", "postal_code": "15000", "country": "\u010cesk\u00e1 Republika"}, "name": "U Prince Miroslava", "description": "Beers from small local breweries."}}, {"geometry": {"type": "Point", "coordinates": [14.4155753, 50.0880429]}, "type": "Feature", "id": 831, "properties": {"address": {"city": "Praha", "country": "\u010cesko", "county": "okres Hlavn\u00ed m\u011bsto Praha", "state": "Praha", "street": "K\u0159i\u017eovnick\u00e1 60/10", "postal_code": "11000"}, "name": "U Rudolfina", "description": "Good Pilsner beer pub, prefer top bar. "}}, {"geometry": {"type": "Point", "coordinates": [14.4311861, 50.0825537]}, "type": "Feature", "id": 805, "properties": {"url": "http://u-stare-posty.wz.cz", "address": {"city": "Praha 1", "street": "Opletalova 17"}, "name": "U Star\u00e9 po\u0161ty", "description": "My favorite stop on way home"}}, {"geometry": {"type": "Point", "coordinates": [14.4339216, 50.0997989]}, "type": "Feature", "id": 835, "properties": {"address": {"city": "Praha", "country": "\u010cesko", "county": "okres Hlavn\u00ed m\u011bsto Praha", "state": "Praha", "street": "Podplukovn\u00edka Sochora 983/20", "postal_code": "17000"}, "name": "U sv. Anton\u00ed\u010dka", "description": "I ve lived nearby for 7 years,  now after more than 10 years it's still the same -incredible. "}}, {"geometry": {"type": "Point", "coordinates": [14.2923278, 49.9616083]}, "type": "Feature", "id": 813, "properties": {"url": "http://www.firmy.cz/detail/2633957-hostinec-u-valtru-trebotov-solopisky.html", "address": {"county": "okres Praha-z\u00e1pad", "city": "Solopisky", "state": "St\u0159edn\u00ed \u010cechy", "street": "Karl\u0161tejnsk\u00e1 ", "country": "\u010cesko"}, "name": "U Valtr\u016f", "description": "Cool village pub"}}, {"geometry": {"type": "Point", "coordinates": [14.2042079, 49.8856842]}, "type": "Feature", "id": 885, "properties": {"address": {"city": "Halouny", "country": "\u010cesko", "county": "okres Beroun", "state": "St\u0159edn\u00ed \u010cechy", "street": "K Vod\u00e1rn\u011b", "postal_code": "26728"}, "name": "U Zrzav\u00e9ho pavi\u00e1na", "description": "Very good food, nice place, but bit overcrouded with bikers"}}, {"geometry": {"type": "Point", "coordinates": [14.3197507, 49.9407326]}, "type": "Feature", "id": 810, "properties": {"url": "http://www.mestocernosice.cz/ubytovani-a-pohostinstvi/restaurace-v-lavickach/", "address": {"city": "\u010cerno\u0161ice", "street": "Osada Star\u00e9 \u0159eky", "country": "\u010cesko"}, "name": "V Lavi\u010dk\u00e1ch", "description": "Settlement (osada) pub on bank of Berounka River.  Classic "}}]}