{"type":"FeatureCollection", "features":[{"geometry": {"type": "Point", "coordinates": [14.403956, 50.09977]}, "type": "Feature", "id": 1, "properties": {"url": "http://www.argument-restaurant.cz/home-page/", "address": {"city": "Praha 6", "street": "Bubene\u010dsk\u00e1 19", "country": "\u010cesk\u00e1 republika"}, "name": "Argument Restaurant Cafe", "description": "\u010cepuje se \u00dan\u011btick\u00e1 10\u00b0 a 12\u00b0."}}, {"geometry": {"type": "Point", "coordinates": [14.402905, 50.077026]}, "type": "Feature", "id": 2, "properties": {"url": "http://www.klub-azyl.cz/", "address": {"city": "Praha 5", "street": "Kroftova 1", "country": "\u010cesk\u00e1 republika"}, "name": "Azyl", "description": "\u010depuje se \u00dan\u011btick\u00e1 12\u00b0"}}, {"geometry": {"type": "Point", "coordinates": [14.452815, 50.0877]}, "type": "Feature", "id": 3, "properties": {"url": "http://www.bajkazyl.cz/", "address": {"city": "Praha 3", "street": "Tachovsk\u00e9 n\u00e1m. 3", "country": "\u010cesk\u00e1 republika"}, "name": "Bajkazyl", "description": "\u010cepuje se \u00dan\u011btick\u00e1 10\u00b0 a 12\u00b0"}}, {"geometry": {"type": "Point", "coordinates": [14.380084, 50.112865]}, "type": "Feature", "id": 4, "properties": {"address": {"city": "Praha 6", "street": "Mat\u011bjsk\u00e1 76", "country": "\u010cesk\u00e1 republika"}, "name": "Bar Fi\u0161erka", "description": "\u010cepuje se \u00dan\u011btick\u00e1 12\u00b0."}}, {"geometry": {"type": "Point", "coordinates": [14.412003, 50.038746]}, "type": "Feature", "id": 5, "properties": {"address": {"city": "Praha 4", "street": "Branick\u00e1 35", "country": "\u010cesk\u00e1 republika"}, "name": "Bar Kulovna", "description": "\u010cepuje se \u00dan\u011btick\u00e1 10\u00b0a 12\u00b0."}}, {"geometry": {"type": "Point", "coordinates": [14.399311, 50.087402]}, "type": "Feature", "id": 6, "properties": {"url": "http://www.boozebar.cz/", "name": "Booz bar", "address": {"city": "Praha 1", "street": "J\u00e1nsk\u00fd vr\u0161ek 2", "country": "\u010cesk\u00e1 republika"}}}, {"geometry": {"type": "Point", "coordinates": [14.439168, 50.074989]}, "type": "Feature", "id": 7, "properties": {"url": "http://cafejehuda.cz/", "address": {"city": "Praha 2", "street": "Blanick\u00e1 12", "country": "\u010cesk\u00e1 republika"}, "name": "Caf\u00e9 Jehuda", "description": "Na \u010depu \u00dan\u011btick\u00e1 12\u00b0."}}, {"geometry": {"type": "Point", "coordinates": [14.423182, 50.077999]}, "type": "Feature", "id": 8, "properties": {"url": "http://www.kolibka.cz/", "address": {"city": "Praha 1", "street": "\u0158eznick\u00e1 10", "country": "\u010cesk\u00e1 republika"}, "name": "Caf\u00e9 Kol\u00edbka", "description": "\u010cepuje se \u00dan\u011btick\u00e1 10\u00b0a 12\u00b0."}}, {"geometry": {"type": "Point", "coordinates": [14.313468, 50.24117]}, "type": "Feature", "id": 9, "properties": {"name": "Cafe Longberry", "address": {"city": "Kralupy n. Vltavou", "street": "Komensk\u00e9ho n\u00e1m. 8", "country": "\u010cesk\u00e1 republika"}}}, {"geometry": {"type": "Point", "coordinates": [14.448931, 50.071014]}, "type": "Feature", "id": 10, "properties": {"url": "http://www.cafesladkovsky.cz/", "address": {"city": "Praha 2", "street": "Sevastopolsk\u00e1 17", "country": "\u010cesk\u00e1 republika"}, "name": "Cafe Sladkovsk\u00fd", "description": "\u010cepuje se \u00dan\u011btick\u00e1 10\u00b0 a 12\u00b0."}}, {"geometry": {"type": "Point", "coordinates": [14.458627, 50.070452]}, "type": "Feature", "id": 11, "properties": {"name": "Country club", "address": {"city": "Praha 10", "street": "Slovinsk\u00e1 19", "country": "\u010cesk\u00e1 republika"}}}, {"geometry": {"type": "Point", "coordinates": [14.437282, 50.078968]}, "type": "Feature", "id": 12, "properties": {"url": "http://www.dcdyne.com/", "name": "Decentn\u00ed d\u00fdn\u011b", "address": {"city": "Praha 2", "street": "Italsk\u00e1 32", "country": "\u010cesk\u00e1 republika"}}}, {"geometry": {"type": "Point", "coordinates": [14.392959, 50.106785]}, "type": "Feature", "id": 13, "properties": {"url": "http://www.dejvickedivadlo.cz/kavarna-dd", "name": "Dejvick\u00e1 divadeln\u00ed kav\u00e1rna", "address": {"city": "Praha 6", "street": "Zelen\u00e1 15a", "country": "\u010cesk\u00e1 republika"}}}, {"geometry": {"type": "Point", "coordinates": [14.436142, 50.077057]}, "type": "Feature", "id": 14, "properties": {"url": "http://dish.cz/", "name": "DISH", "address": {"city": "Praha 2", "street": "\u0158\u00edmsk\u00e1 29", "country": "\u010cesk\u00e1 republika"}}}, {"geometry": {"type": "Point", "coordinates": [14.460185, 50.093085]}, "type": "Feature", "id": 15, "properties": {"url": "http://divokakavarna.wix.com/kavarna", "name": "Divok\u00e9 matky - kav\u00e1rna", "address": {"city": "Praha 8", "street": "Hybe\u0161ova 2", "country": "\u010cesk\u00e1 republika"}}}, {"geometry": {"type": "Point", "coordinates": [14.258666, 50.161987]}, "type": "Feature", "id": 16, "properties": {"url": "http://www.hotelokor.com/_en/index.html", "address": {"city": "Oko\u0159", "street": "Oko\u0159 23", "country": "\u010cesk\u00e1 republika"}, "name": "Family Hotel Oko\u0159", "description": "\u010cepuje se \u00dan\u011btick\u00e1 12\u00b0,"}}, {"geometry": {"type": "Point", "coordinates": [14.428809, 50.066936]}, "type": "Feature", "id": 17, "properties": {"address": {"city": "Praha 4", "street": "U Boti\u010de", "country": "\u010cesk\u00e1 republika"}, "name": "Folimanka park", "description": "\u010cepuje se \u00dan\u011btick\u00e1 10\u00b0 a 12\u00b0."}}, {"geometry": {"type": "Point", "coordinates": [14.387442, 50.154274]}, "type": "Feature", "id": 18, "properties": {"url": "http://www.zviratka.eu/", "name": "Hosp\u016fdka Zv\u00ed\u0159\u00e1tka", "address": {"city": "Roztoky", "street": "Tich\u00e9 \u00fadol\u00ed 66", "country": "\u010cesk\u00e1 republika"}}}, {"geometry": {"type": "Point", "coordinates": [14.448028, 50.110781]}, "type": "Feature", "id": 19, "properties": {"name": "Hostinec U vody", "address": {"city": "Praha 7", "street": "U vody 1", "country": "\u010cesk\u00e1 republika"}}}, {"geometry": {"type": "Point", "coordinates": [14.392061, 50.161919]}, "type": "Feature", "id": 20, "properties": {"url": "http://www.academic.cz/cs", "name": "Hotel Academic", "address": {"city": "Roztoky", "street": "Tyr\u0161ovo n\u00e1m\u011bst\u00ed 2222", "country": "\u010cesk\u00e1 republika"}}}, {"geometry": {"type": "Point", "coordinates": [14.404712, 50.08153]}, "type": "Feature", "id": 21, "properties": {"url": "http://ukrize.cz/", "name": "Hotel U k\u0159\u00ed\u017ee", "address": {"city": "Praha 1", "street": "\u00dajezd 20", "country": "\u010cesk\u00e1 republika"}}}, {"geometry": {"type": "Point", "coordinates": [14.425433, 50.080078]}, "type": "Feature", "id": 23, "properties": {"name": "J\u00e1ma", "address": {"city": "Praha 1", "street": "V j\u00e1m\u011b 7", "country": "\u010cesk\u00e1 republika"}}}, {"geometry": {"type": "Point", "coordinates": [14.4051188, 50.0982337]}, "type": "Feature", "id": 87, "properties": {"url": "http://www.jammclub.cz/", "name": "JAMM CLUB", "address": {"city": "Praha 6", "street": "Pod ka\u0161tany 183/3", "country": "\u010cesk\u00e1 republika"}}}, {"geometry": {"type": "Point", "coordinates": [14.419727, 50.084888]}, "type": "Feature", "id": 24, "properties": {"url": "http://www.jazzstarapani.cz/", "name": "Jazz club U star\u00e9 pan\u00ed", "address": {"city": "Praha 1", "street": "Michalsk\u00e1 9", "country": "\u010cesk\u00e1 republika"}}}, {"geometry": {"type": "Point", "coordinates": [14.408848, 50.076015]}, "type": "Feature", "id": 25, "properties": {"url": "http://www.jazzdock.cz/", "address": {"city": "Praha 5", "street": "Jan\u00e1\u010dkovo n\u00e1b\u0159e\u017e\u00ed 2", "country": "\u010cesk\u00e1 republika"}, "name": "Jazz Dock", "description": "\u010cepuje se \u00dan\u011btick\u00e1 10\u00b0 filtrovan\u00e1."}}, {"geometry": {"type": "Point", "coordinates": [14.441764, 50.074287]}, "type": "Feature", "id": 22, "properties": {"address": {"city": "Praha 2", "street": "Moravsk\u00e1 9", "country": "\u010cesk\u00e1 republika"}, "name": "J+J Bar", "description": "\u010cepuje se \u00dan\u011btick\u00e1 10\u00b0 a 12\u00b0."}}, {"geometry": {"type": "Point", "coordinates": [14.45524, 50.094677]}, "type": "Feature", "id": 26, "properties": {"name": "Kachna a Kor\u00e1b", "address": {"city": "Praha 8", "street": "Sokolovsk\u00e1 114", "country": "\u010cesk\u00e1 republika"}}}, {"geometry": {"type": "Point", "coordinates": [14.352801, 50.088028]}, "type": "Feature", "id": 27, "properties": {"url": "http://www.kafedovetru.cz/", "name": "Kav\u00e1rna Do v\u011btru", "address": {"city": "Praha 6", "street": "Na V\u011btrn\u00edku 18", "country": "\u010cesk\u00e1 republika"}}}, {"geometry": {"type": "Point", "coordinates": [14.398077, 50.103577]}, "type": "Feature", "id": 28, "properties": {"url": "http://www.facebook.com/KavarnaKabinet", "name": "Kav\u00e1rna Kabinet", "address": {"country": "\u010cesk\u00e1 republika"}}}, {"geometry": {"type": "Point", "coordinates": [14.436502, 50.10062]}, "type": "Feature", "id": 29, "properties": {"name": "Kav\u00e1rna Liber\u00e1l", "address": {"city": "Praha 7", "street": "He\u0159manova 6", "country": "\u010cesk\u00e1 republika"}}}, {"geometry": {"type": "Point", "coordinates": [14.43449, 50.103954]}, "type": "Feature", "id": 30, "properties": {"address": {"city": "Praha 7", "street": "Schnirchova", "country": "\u010cesk\u00e1 republika"}, "name": "Kav\u00e1rna Podk\u016fvka", "description": "\u010cepuje se \u00danetick\u00e1 12\u00b0."}}, {"geometry": {"type": "Point", "coordinates": [14.425199, 50.101685]}, "type": "Feature", "id": 31, "properties": {"name": "Klub Obora", "address": {"city": "Praha 7", "street": "U akademie 11", "country": "\u010cesk\u00e1 republika"}}}, {"geometry": {"type": "Point", "coordinates": [14.429069, 50.073571]}, "type": "Feature", "id": 32, "properties": {"url": "http://www.restauracekulovyblesk.cz/", "name": "Kulov\u00fd blesk", "address": {"city": "Praha 2", "street": "Sokolsk\u00e1 1499 / 13", "country": "\u010cesk\u00e1 republika"}}}, {"geometry": {"type": "Point", "coordinates": [14.398283, 50.100877]}, "type": "Feature", "id": 33, "properties": {"url": "http://www.menueat.cz/hlavni_strana.html", "name": "MENUEAT", "address": {"city": "Praha", "street": "\u010ceskoslovensk\u00e9 arm\u00e1dy 30", "country": "\u010cesk\u00e1 republika"}}}, {"geometry": {"type": "Point", "coordinates": [14.3946, 50.098835]}, "type": "Feature", "id": 34, "properties": {"name": "Moravsk\u00fd skl\u00edpek Kafka", "address": {"city": "Praha 6", "street": "Kafkova 25", "country": "\u010cesk\u00e1 republika"}}}, {"geometry": {"type": "Point", "coordinates": [14.338896, 50.13168]}, "type": "Feature", "id": 35, "properties": {"address": {"city": "Horom\u011b\u0159ice", "street": "Velvarsk\u00e1", "country": "\u010cesk\u00e1 republika"}, "name": "Music bar Echo", "description": "Ob\u010das se \u010depuje se \u00dan\u011btick\u00e1 10\u00b0nefiltrovan\u00e1."}}, {"geometry": {"type": "Point", "coordinates": [14.477502, 50.104603]}, "type": "Feature", "id": 36, "properties": {"url": "http://www.napalme.cz/", "name": "Na palm\u011b", "address": {"city": "Praha 8", "street": "Na \u017eertv\u00e1ch 32", "country": "\u010cesk\u00e1 republika"}}}, {"geometry": {"type": "Point", "coordinates": [14.408424, 50.103634]}, "type": "Feature", "id": 37, "properties": {"url": "http://www.dejrest.cz/", "address": {"city": "Praha 6", "street": "Wolkerova 12", "country": "\u010cesk\u00e1 republika"}, "name": "Na Slamn\u00edku", "description": "\u010cepuje se \u00dan\u011btick\u00e1 12\u00b0."}}, {"geometry": {"type": "Point", "coordinates": [14.402153, 50.102524]}, "type": "Feature", "id": 38, "properties": {"url": "http://www.dejrest.cz/", "name": "Na Urale", "address": {"city": "Praha 6", "street": "Uralsk\u00e1 9", "country": "\u010cesk\u00e1 republika"}}}, {"geometry": {"type": "Point", "coordinates": [14.388296, 50.160549]}, "type": "Feature", "id": 39, "properties": {"name": "Na Vr\u0161k\u00e1ch", "address": {"city": "Roztoky", "street": "Lidick\u00e1 372", "country": "\u010cesk\u00e1 republika"}}}, {"geometry": {"type": "Point", "coordinates": [14.552212, 50.046242]}, "type": "Feature", "id": 40, "properties": {"url": "http://uvrtule.cz/?page_id=19", "address": {"city": "Horn\u00ed M\u011bcholupy", "street": "D\u00fd\u0161insk\u00e1 248", "country": "\u010cesk\u00e1 republika"}, "name": "Nejmen\u0161\u00ed vin\u00e1rni\u010dka u st\u0159edn\u011b velk\u00e9 vrtule", "description": "\u010cepuje se \u00dan\u011btick\u00e1 12\u00b0"}}, {"geometry": {"type": "Point", "coordinates": [14.455003, 50.072156]}, "type": "Feature", "id": 41, "properties": {"url": "http://www.neklid.com/", "name": "NEKLID RESTAURANT", "address": {"city": "Praha 10", "street": "Rusk\u00e1 34", "country": "\u010cesk\u00e1 republika"}}}, {"geometry": {"type": "Point", "coordinates": [14.430585, 50.07634]}, "type": "Feature", "id": 43, "properties": {"url": "http://www.notabene-restaurant.cz/", "address": {"city": "Praha 2", "street": "Mikovcova 4", "country": "\u010cesk\u00e1 republika"}, "name": "Nota Bene", "description": "\u010cepuje se \u00dan\u011btick\u00e1 10\u00b0, 12\u00b0 a speci\u00e1l"}}, {"geometry": {"type": "Point", "coordinates": [14.317288, 50.15947]}, "type": "Feature", "id": 42, "properties": {"address": {"city": "Velk\u00e9 P\u0159\u00edlepy", "street": "Old\u0159icha Nov\u00e9ho 836", "country": "\u010cesk\u00e1 republika"}, "name": "NO way out", "description": "\u010cepuje se \u00dan\u011btick\u00e1 10\u00b0 a 12\u00b0."}}, {"geometry": {"type": "Point", "coordinates": [14.398729, 50.170251]}, "type": "Feature", "id": 44, "properties": {"url": "http://www.usranek.unas.cz/", "name": "Ob\u010derstven\u00ed U \u0160ran\u011bk", "address": {"city": "Roztoky", "street": "Plavidlo 86", "country": "\u010cesk\u00e1 republika"}}}, {"geometry": {"type": "Point", "coordinates": [14.248774, 50.153202]}, "type": "Feature", "id": 45, "properties": {"url": "http://www.penzionvpolich.cz/index.php?lng=cz&sel=uvod", "address": {"city": "Praha-z\u00e1pad", "street": "Mal\u00e9 \u0106\u00ed\u010dovice 26", "country": "\u010cesk\u00e1 republika"}, "name": "Penzion V pol\u00edch", "description": "\u010cepuje se \u00dan\u011btick\u00e1 12\u00b0Penzion v pol\u00edch, Mal\u00e9 \u010ci\u010dovice 26, 252 68, v\u00edce informac\u00ed zde."}}, {"geometry": {"type": "Point", "coordinates": [14.39827, 50.08226]}, "type": "Feature", "id": 46, "properties": {"url": "http://www.petrinsketerasy.cz/", "address": {"city": "Praha 1", "street": "Semin\u00e1\u0159sk\u00e9 zahrady 393", "country": "\u010cesk\u00e1 republika"}, "name": "Pet\u0159\u00ednsk\u00e9 terasy", "description": "\u010cepuje se \u00dan\u011btick\u00e1 12\u00b0."}}, {"geometry": {"type": "Point", "coordinates": [14.422989, 50.099293]}, "type": "Feature", "id": 47, "properties": {"url": "http://www.pivniklub300.cz/", "name": "Pivn\u00ed Klub 300", "address": {"city": "Praha 7", "street": "Jire\u010dkova 15", "country": "\u010cesk\u00e1 republika"}}}, {"geometry": {"type": "Point", "coordinates": [14.24993, 50.08221]}, "type": "Feature", "id": 48, "properties": {"url": "http://www.pizzahostivice.cz", "name": "PIZZA GRILL GRACIA", "address": {"city": "Hostivice", "street": "\u010cesk\u00e1 879", "country": "\u010cesk\u00e1 republika"}}}, {"geometry": {"type": "Point", "coordinates": [15.058187, 50.490708]}, "type": "Feature", "id": 49, "properties": {"url": "http://www.gastro-server.com/u-kavaliru/", "name": "Pohostinstv\u00ed U kaval\u00edra", "address": {"city": "Kn\u011b\u017emost", "street": "Suhrovice 38", "country": "\u010cesk\u00e1 republika"}}}, {"geometry": {"type": "Point", "coordinates": [14.426847, 50.090631]}, "type": "Feature", "id": 50, "properties": {"url": "http://www.praguebeermuseum.com/en/index.htm", "name": "Prague Beer Museum", "address": {"city": "Praha 1", "street": "Dlouh\u00e1 46", "country": "\u010cesk\u00e1 republika"}}}, {"geometry": {"type": "Point", "coordinates": [14.450309, 50.10197]}, "type": "Feature", "id": 51, "properties": {"url": "http://prazelenina.cz/o-prazelenine/", "name": "Prazelenina", "address": {"city": "Praha 8", "street": "Komunard\u016f", "country": "\u010cesk\u00e1 republika"}}}, {"geometry": {"type": "Point", "coordinates": [14.4177247, 50.084819]}, "type": "Feature", "id": 88, "properties": {"name": "Restaurace Na Tr\u017ei\u0161ti", "address": {"city": "Praha 10", "street": "Krymsk\u00e1 38, Praha 10", "country": "\u010cesk\u00e1 republika"}}}, {"geometry": {"type": "Point", "coordinates": [14.430585, 50.105827]}, "type": "Feature", "id": 52, "properties": {"url": "http://www.restaurantprazan.cz/", "address": {"city": "Praha 7", "street": "are\u00e1l V\u00fdstavi\u0161t\u011b 67", "country": "\u010cesk\u00e1 republika"}, "name": "Restaurace Pra\u017ean", "description": "\u010cepuje se \u00dan\u011btick\u00e1 10\u00b0 a 12\u00b0"}}, {"geometry": {"type": "Point", "coordinates": [14.0781, 50.228649]}, "type": "Feature", "id": 53, "properties": {"url": "http://www.tovarnaslany.cz/", "address": {"city": "Slan\u00fd", "street": "Wilsonova", "country": "\u010cesk\u00e1 republika"}, "name": "Restaurace Tov\u00e1rna", "description": "\u010cepuje se \u00dan\u011btick\u00e1 10\u00b0 a 12\u00b0 a Baronovo p\u0161eni\u010dn\u00e9."}}, {"geometry": {"type": "Point", "coordinates": [14.354255, 50.149223]}, "type": "Feature", "id": 54, "properties": {"name": "Restaurace v \u00dan\u011btick\u00e9m pivovaru", "address": {"country": "\u010cesk\u00e1 republika"}}}, {"geometry": {"type": "Point", "coordinates": [14.427151, 50.079143]}, "type": "Feature", "id": 55, "properties": {"name": "Rock and Beer", "address": {"city": "Praha 1", "street": "Ve sme\u010dk\u00e1ch 21", "country": "\u010cesk\u00e1 republika"}}}, {"geometry": {"type": "Point", "coordinates": [14.352844, 50.151344]}, "type": "Feature", "id": 56, "properties": {"name": "Sokolovna", "address": {"city": "\u00dan\u011btice", "country": "\u010cesk\u00e1 republika"}}}, {"geometry": {"type": "Point", "coordinates": [14.306141, 50.159698]}, "type": "Feature", "id": 57, "properties": {"url": "http://www.spejchar.wz.cz/cz/", "address": {"city": "Velk\u00e9 P\u0159\u00edlepy", "street": "Kladensk\u00e1", "country": "\u010cesk\u00e1 republika"}, "name": "\u0160pejchar", "description": "\u010cepuje se \u00dan\u011btick\u00e1 12\u00b0"}}, {"geometry": {"type": "Point", "coordinates": [14.372818, 50.140862]}, "type": "Feature", "id": 58, "properties": {"url": "http://www.starosuchdolska.cz/", "address": {"city": "Praha 6 Suchdol", "street": "Ke Koz\u00edm h\u0159bet\u016fm 755/8", "country": "\u010cesk\u00e1 republika"}, "name": "Starosuchdolsk\u00e1", "description": "\u010cepuje se \u00dan\u011btick\u00e1 12\u00b0."}}, {"geometry": {"type": "Point", "coordinates": [14.417846, 50.080667]}, "type": "Feature", "id": 59, "properties": {"url": "http://www.jamapub.cz", "name": "Steakhouse J\u00e1ma", "address": {"city": "Praha 1", "street": "Ostrovn\u00ed 26", "country": "\u010cesk\u00e1 republika"}}}, {"geometry": {"type": "Point", "coordinates": [14.384182, 50.128953]}, "type": "Feature", "id": 60, "properties": {"name": "Studio Cafe", "address": {"city": "Praha 6", "street": "Ke Kladivum 10", "country": "\u010cesk\u00e1 republika"}}}, {"geometry": {"type": "Point", "coordinates": [14.423429, 50.0993]}, "type": "Feature", "id": 61, "properties": {"address": {"city": "Praha 7", "street": "Jire\u010dkova", "country": "\u010cesk\u00e1 republika"}, "name": "Su-teren", "description": "\u010cepuje se zde \u00dan\u011btick\u00e1 12\u00b0."}}, {"geometry": {"type": "Point", "coordinates": [14.429426, 50.086445]}, "type": "Feature", "id": 62, "properties": {"url": "http://www.tlustakoala.cz/", "address": {"city": "Praha 1", "street": "Senov\u00e1\u017en\u00e1 8", "country": "\u010cesk\u00e1 republika"}, "name": "Tlust\u00e1 Koala", "description": "\u010depuje se \u00dan\u011btick\u00e1 12\u00b0 \"Koala\"."}}, {"geometry": {"type": "Point", "coordinates": [14.394627, 50.10482]}, "type": "Feature", "id": 63, "properties": {"name": "U Ad\u00e9ly", "address": {"city": "Praha 6", "street": "Jugosl\u00e1vsk\u00fdch partyz\u00e1n\u016f", "country": "\u010cesk\u00e1 republika"}}}, {"geometry": {"type": "Point", "coordinates": [14.296359, 50.115986]}, "type": "Feature", "id": 64, "properties": {"url": "http://www.fcpk.cz/restaurace.php", "name": "U Drahu\u0161ky", "address": {"city": "P\u0159edn\u00ed Kopanina", "street": "Ke goniu 123", "country": "\u010cesk\u00e1 republika"}}}, {"geometry": {"type": "Point", "coordinates": [14.450022, 50.085254]}, "type": "Feature", "id": 65, "properties": {"url": "http://www.uhabasku.cz/", "name": "U Hab\u00e1sk\u016f", "address": {"city": "Praha 3", "street": "\u0160t\u00edtn\u00e9ho 16", "country": "\u010cesk\u00e1 republika"}}}, {"geometry": {"type": "Point", "coordinates": [14.295112, 50.197592]}, "type": "Feature", "id": 66, "properties": {"name": "U hasi\u010d\u016f", "address": {"city": "Holubice", "street": "Kozinec 12", "country": "\u010cesk\u00e1 republika"}}}, {"geometry": {"type": "Point", "coordinates": [14.414071, 50.074356]}, "type": "Feature", "id": 67, "properties": {"name": "U Kalend\u016f", "address": {"city": "Praha 2", "street": "Ra\u0161\u00ednovo n\u00e1b\u0159e\u017e\u00ed 56", "country": "\u010cesk\u00e1 republika"}}}, {"geometry": {"type": "Point", "coordinates": [14.3731, 50.125298]}, "type": "Feature", "id": 68, "properties": {"address": {"city": "Lysolaje", "street": "Kov\u00e1rensk\u00e1", "country": "\u010cesk\u00e1 republika"}, "name": "U kapli\u010dky", "description": "\u010cepuje se \u00dan\u011btick\u00e1 10\u00b0 filtrovan\u00e1."}}, {"geometry": {"type": "Point", "coordinates": [14.359638, 50.149586]}, "type": "Feature", "id": 69, "properties": {"name": "U Las\u00edk\u016f", "address": {"city": "\u00dan\u011btice", "street": "Tich\u00e9 \u00fadol\u00ed", "country": "\u010cesk\u00e1 republika"}}}, {"geometry": {"type": "Point", "coordinates": [14.36376, 50.19957]}, "type": "Feature", "id": 70, "properties": {"name": "U n\u00e1dra\u017e\u00ed", "address": {"city": "Lib\u010dice", "country": "\u010cesk\u00e1 republika"}}}, {"geometry": {"type": "Point", "coordinates": [14.426342, 50.025246]}, "type": "Feature", "id": 71, "properties": {"name": "U pavouka", "address": {"city": "Praha 4", "street": "\u00dadoln\u00ed", "country": "\u010cesk\u00e1 republika"}}}, {"geometry": {"type": "Point", "coordinates": [14.396317, 50.104389]}, "type": "Feature", "id": 72, "properties": {"url": "http://www.dejrest.cz/", "address": {"city": "Praha 6", "street": "Loty\u0161sk\u00e1 8", "country": "\u010cesk\u00e1 republika"}, "name": "U p\u011btn\u00edka", "description": "\u010cepuje se \u00dan\u011btick\u00e1 12\u00b0"}}, {"geometry": {"type": "Point", "coordinates": [14.398241, 50.061695]}, "type": "Feature", "id": 73, "properties": {"url": "http://uprincemiroslava.eu/", "name": "U prince Miroslava", "address": {"city": "Praha 5", "street": "U vodojemu 4", "country": "\u010cesk\u00e1 republika"}}}, {"geometry": {"type": "Point", "coordinates": [14.492145, 50.076628]}, "type": "Feature", "id": 74, "properties": {"name": "U sud\u016f", "address": {"city": "Praha 10", "street": "\u010cernokosteleck\u00e1 18", "country": "\u010cesk\u00e1 republika"}}}, {"geometry": {"type": "Point", "coordinates": [14.365969, 50.126194]}, "type": "Feature", "id": 75, "properties": {"name": "U Valent\u016f", "address": {"city": "Praha 6", "street": "Nad pramenem 42", "country": "\u010cesk\u00e1 republika"}}}, {"geometry": {"type": "Point", "coordinates": [14.428235, 50.099957]}, "type": "Feature", "id": 76, "properties": {"name": "U velblouda", "address": {"city": "Praha 7", "street": "Ha\u0161kova", "country": "\u010cesk\u00e1 republika"}}}, {"geometry": {"type": "Point", "coordinates": [14.33888, 50.131649]}, "type": "Feature", "id": 77, "properties": {"url": "http://www.uwocka.cz/", "name": "U Wo\u010dka", "address": {"city": "Horom\u011b\u0159ice", "street": "Nebu\u0161ick\u00e1", "country": "\u010cesk\u00e1 republika"}}}, {"geometry": {"type": "Point", "coordinates": [14.322406, 50.111561]}, "type": "Feature", "id": 78, "properties": {"name": "U \u017dab\u00e1ka", "address": {"city": "Nebu\u0161ice", "street": "Sichrovsk\u00e9ho 19", "country": "\u010cesk\u00e1 republika"}}}, {"geometry": {"type": "Point", "coordinates": [14.482362, 50.108513]}, "type": "Feature", "id": 80, "properties": {"url": "http://www.vecerniskola.com/", "address": {"city": "Praha 9", "street": "Nad Kol\u010davkou 8", "country": "\u010cesk\u00e1 republika"}, "name": "Ve\u010dern\u00ed \u0161kola", "description": "\u010depuje se \u00dan\u011btick\u00e1 10\u00b0 a 12\u00b0"}}, {"geometry": {"type": "Point", "coordinates": [14.339604, 50.149105]}, "type": "Feature", "id": 79, "properties": {"address": {"city": "\u010cern\u00fd v\u016fl", "street": "K velazu", "country": "\u010cesk\u00e1 republika"}, "name": "Ve mlejn\u011b", "description": "\u010cepuje se \u00dan\u011btick\u00e1 10\u00b0."}}, {"geometry": {"type": "Point", "coordinates": [14.334516, 50.161986]}, "type": "Feature", "id": 81, "properties": {"name": "Vinny sklep Gymnasium", "address": {"city": "Velk\u00e9 P\u0159\u00edlepy", "street": "\u00daholi\u010dky", "country": "\u010cesk\u00e1 republika"}}}, {"geometry": {"type": "Point", "coordinates": [14.473393, 50.090164]}, "type": "Feature", "id": 82, "properties": {"url": "http://www.facebook.com/pages/Vozovna-%C5%BDi%C5%BEkoff/351130784983055?ref=stream", "name": "Vozovna \u017di\u017ekoff", "address": {"city": "Praha 3", "street": "Biskupcova 42", "country": "\u010cesk\u00e1 republika"}}}, {"geometry": {"type": "Point", "coordinates": [14.4179463, 50.0833583]}, "type": "Feature", "id": 83, "properties": {"name": "Vzorkovna", "address": {"city": "Praha 1", "street": "Bartolom\u011bjsk\u00e1 13", "country": "\u010cesk\u00e1 republika"}}}, {"geometry": {"type": "Point", "coordinates": [14.430952, 50.080653]}, "type": "Feature", "id": 84, "properties": {"name": "Washingtons", "address": {"city": "Praha 1", "street": "Washingtonova 9", "country": "\u010cesk\u00e1 republika"}}}, {"geometry": {"type": "Point", "coordinates": [14.443436, 50.064062]}, "type": "Feature", "id": 85, "properties": {"url": "http://www.zlycasy.eu/", "name": "Zl\u00fd \u010dasy", "address": {"city": "Praha 4", "street": "\u010cestm\u00edrova 5", "country": "\u010cesk\u00e1 republika"}}}, {"geometry": {"type": "Point", "coordinates": [14.452697, 50.063904]}, "type": "Feature", "id": 86, "properties": {"url": "http://www.zubatypes.cz/cs/uvodni-strana", "name": "Zubat\u00fd Pes", "address": {"city": "Praha 10", "street": "Petrohradsk\u00e1 216/3", "country": "\u010cesk\u00e1 republika"}}}]}